{
"type": "FeatureCollection",
"name": "Fixpunkte_PNF",
"crs": { "type": "name", "properties": { "name": "urn:ogc:def:crs:OGC:1.3:CRS84" } },
"features": [
{ "type": "Feature", "properties": { "OBJEKTART": "LFP1", "TITEL": "NULL", "PUNKTNAME": "Albis Pavillon", "LV95E": 2682729.95, "LV95N": 1235617.49, "LK25": "1111", "LFPNR": "11115498", "NOWAY": 1, "SECTOR": 3, "ZYKLUS": 2013 }, "geometry": { "type": "Point", "coordinates": [ 8.531830755780351, 47.26627882661105 ] } },
{ "type": "Feature", "properties": { "OBJEKTART": "LFP1", "TITEL": "NULL", "PUNKTNAME": "Albis Pfeiler", "LV95E": 2682733.56, "LV95N": 1235615.9, "LK25": "1111", "LFPNR": "11115490", "NOWAY": 1, "SECTOR": 3, "ZYKLUS": 2013 }, "geometry": { "type": "Point", "coordinates": [ 8.531878159901931, 47.266264074347909 ] } },
{ "type": "Feature", "properties": { "OBJEKTART": "LFP1", "TITEL": "NULL", "PUNKTNAME": "Andelfingen", "LV95E": 2693683.8, "LV95N": 1272190.87, "LK25": "1052", "LFPNR": "10521300", "NOWAY": 0, "SECTOR": 3, "ZYKLUS": 2019 }, "geometry": { "type": "Point", "coordinates": [ 8.684224948054842, 47.593718385969972 ] } },
{ "type": "Feature", "properties": { "OBJEKTART": "LFP1", "TITEL": "NULL", "PUNKTNAME": "Bütschelegg", "LV95E": 2601330.901, "LV95N": 1187960.609, "LK25": "1186", "LFPNR": "11868220", "NOWAY": 0, "SECTOR": 4, "ZYKLUS": 2014 }, "geometry": { "type": "Point", "coordinates": [ 7.456082014227052, 46.842784234339433 ] } },
{ "type": "Feature", "properties": { "OBJEKTART": "LFP1", "TITEL": "NULL", "PUNKTNAME": "Bachtel", "LV95E": 2709404.88, "LV95N": 1239148.68, "LK25": "1113", "LFPNR": "11131150", "NOWAY": 0, "SECTOR": 3, "ZYKLUS": 2015 }, "geometry": { "type": "Point", "coordinates": [ 8.885106592462778, 47.29415327075418 ] } },
{ "type": "Feature", "properties": { "OBJEKTART": "LFP1", "TITEL": "NULL", "PUNKTNAME": "Bantiger", "LV95E": 2606779.72, "LV95N": 1202982.7, "LK25": "1167", "LFPNR": "11672137", "NOWAY": 0, "SECTOR": 4, "ZYKLUS": 2014 }, "geometry": { "type": "Point", "coordinates": [ 7.527735655455651, 46.977878692470568 ] } },
{ "type": "Feature", "properties": { "OBJEKTART": "LFP1", "TITEL": "NULL", "PUNKTNAME": "Bantiger", "LV95E": 2606779.72, "LV95N": 1202982.7, "LK25": "1167", "LFPNR": "11672130", "NOWAY": 0, "SECTOR": 4, "ZYKLUS": 2014 }, "geometry": { "type": "Point", "coordinates": [ 7.527735655455651, 46.977878692470568 ] } },
{ "type": "Feature", "properties": { "OBJEKTART": "LFP1", "TITEL": "NULL", "PUNKTNAME": "Bantiger Ost", "LV95E": 2606882.641, "LV95N": 1202932.069, "LK25": "1167", "LFPNR": "11672131", "NOWAY": 0, "SECTOR": 4, "ZYKLUS": 2014 }, "geometry": { "type": "Point", "coordinates": [ 7.529087552714739, 46.977422211505925 ] } },
{ "type": "Feature", "properties": { "OBJEKTART": "LFP1", "TITEL": "NULL", "PUNKTNAME": "Barillette", "LV95E": 2499033.68, "LV95N": 1142980.446, "LK25": "1261", "LFPNR": "12611100", "NOWAY": 0, "SECTOR": 1, "ZYKLUS": 2011 }, "geometry": { "type": "Point", "coordinates": [ 6.125009474044333, 46.430545876659984 ] } },
{ "type": "Feature", "properties": { "OBJEKTART": "LFP1", "TITEL": "NULL", "PUNKTNAME": "Basel-Münster", "LV95E": 2611549.344, "LV95N": 1267289.14, "LK25": "1047", "LFPNR": "10474359", "NOWAY": 0, "SECTOR": 2, "ZYKLUS": 2018 }, "geometry": { "type": "Point", "coordinates": [ 7.592064867593538, 47.556216493144341 ] } },
{ "type": "Feature", "properties": { "OBJEKTART": "LFP1", "TITEL": "NULL", "PUNKTNAME": "Basel-Münster", "LV95E": 2611549.344, "LV95N": 1267289.14, "LK25": "1047", "LFPNR": "10474356", "NOWAY": 0, "SECTOR": 2, "ZYKLUS": 2018 }, "geometry": { "type": "Point", "coordinates": [ 7.592064867593538, 47.556216493144341 ] } },
{ "type": "Feature", "properties": { "OBJEKTART": "LFP1", "TITEL": "NULL", "PUNKTNAME": "Basisanfang Aarberg", "LV95E": 2586515.217, "LV95N": 1210072.021, "LK25": "1146", "LFPNR": "11460350", "NOWAY": 0, "SECTOR": 1, "ZYKLUS": 2012 }, "geometry": { "type": "Point", "coordinates": [ 7.261193958959428, 47.041542841834222 ] } },
{ "type": "Feature", "properties": { "OBJEKTART": "LFP1", "TITEL": "NULL", "PUNKTNAME": "Basisanfang Aarberg", "LV95E": 2586515.297, "LV95N": 1210069.48, "LK25": "1146", "LFPNR": "11460351", "NOWAY": 0, "SECTOR": 1, "ZYKLUS": 2012 }, "geometry": { "type": "Point", "coordinates": [ 7.261195087694931, 47.041519987190675 ] } },
{ "type": "Feature", "properties": { "OBJEKTART": "LFP1", "TITEL": "NULL", "PUNKTNAME": "Basisanfang Weinfelden", "LV95E": 2724856.494, "LV95N": 1270277.058, "LK25": "1053", "LFPNR": "10538390", "NOWAY": 0, "SECTOR": 3, "ZYKLUS": 2019 }, "geometry": { "type": "Point", "coordinates": [ 9.098044973271774, 47.571318939557671 ] } },
{ "type": "Feature", "properties": { "OBJEKTART": "LFP1", "TITEL": "NULL", "PUNKTNAME": "Basisende Aarberg", "LV95E": 2584116.461, "LV95N": 1209996.823, "LK25": "1145", "LFPNR": "11458263", "NOWAY": 0, "SECTOR": 1, "ZYKLUS": 2011 }, "geometry": { "type": "Point", "coordinates": [ 7.229633191454896, 47.040812999692243 ] } },
{ "type": "Feature", "properties": { "OBJEKTART": "LFP1", "TITEL": "NULL", "PUNKTNAME": "Basisende Aarberg N", "LV95E": 2584116.381, "LV95N": 1209999.463, "LK25": "1145", "LFPNR": "11458260", "NOWAY": 0, "SECTOR": 1, "ZYKLUS": 2011 }, "geometry": { "type": "Point", "coordinates": [ 7.22963204578754, 47.040836744530111 ] } },
{ "type": "Feature", "properties": { "OBJEKTART": "LFP1", "TITEL": "NULL", "PUNKTNAME": "Basisende Aarberg S", "LV95E": 2584116.601, "LV95N": 1209992.293, "LK25": "1145", "LFPNR": "11458261", "NOWAY": 0, "SECTOR": 1, "ZYKLUS": 2011 }, "geometry": { "type": "Point", "coordinates": [ 7.22963519319915, 47.040772255774399 ] } },
{ "type": "Feature", "properties": { "OBJEKTART": "LFP1", "TITEL": "NULL", "PUNKTNAME": "Basisende Märstetten", "LV95E": 2722551.994, "LV95N": 1271345.946, "LK25": "1053", "LFPNR": "10537391", "NOWAY": 0, "SECTOR": 3, "ZYKLUS": 2019 }, "geometry": { "type": "Point", "coordinates": [ 9.067720565292991, 47.581364388620926 ] } },
{ "type": "Feature", "properties": { "OBJEKTART": "LFP1", "TITEL": "NULL", "PUNKTNAME": "Basisende Märstetten", "LV95E": 2722550.695, "LV95N": 1271343.163, "LK25": "1053", "LFPNR": "10537390", "NOWAY": 0, "SECTOR": 3, "ZYKLUS": 2019 }, "geometry": { "type": "Point", "coordinates": [ 9.067702534385857, 47.581339607359972 ] } },
{ "type": "Feature", "properties": { "OBJEKTART": "LFP1", "TITEL": "NULL", "PUNKTNAME": "Beichlen", "LV95E": 2640730.887, "LV95N": 1194192.126, "LK25": "1169", "LFPNR": "11691510", "NOWAY": 1, "SECTOR": 2, "ZYKLUS": 2018 }, "geometry": { "type": "Point", "coordinates": [ 7.973150824099926, 46.89759522378526 ] } },
{ "type": "Feature", "properties": { "OBJEKTART": "LFP1", "TITEL": "NULL", "PUNKTNAME": "Belpberg", "LV95E": 2606651.253, "LV95N": 1189903.459, "LK25": "1187", "LFPNR": "11872200", "NOWAY": 0, "SECTOR": 4, "ZYKLUS": 2014 }, "geometry": { "type": "Point", "coordinates": [ 7.525858099438768, 46.860229411644141 ] } },
{ "type": "Feature", "properties": { "OBJEKTART": "LFP1", "TITEL": "NULL", "PUNKTNAME": "Beringer Randen", "LV95E": 2685767.823, "LV95N": 1284474.783, "LK25": "1031", "LFPNR": "10316192", "NOWAY": 0, "SECTOR": 3, "ZYKLUS": 2013 }, "geometry": { "type": "Point", "coordinates": [ 8.581369469382746, 47.705263152233393 ] } },
{ "type": "Feature", "properties": { "OBJEKTART": "LFP1", "TITEL": "NULL", "PUNKTNAME": "Beringer Randen", "LV95E": 2685739.973, "LV95N": 1284457.013, "LK25": "1031", "LFPNR": "10316198", "NOWAY": 0, "SECTOR": 3, "ZYKLUS": 2013 }, "geometry": { "type": "Point", "coordinates": [ 8.580995008349749, 47.705107006949852 ] } },
{ "type": "Feature", "properties": { "OBJEKTART": "LFP1", "TITEL": "NULL", "PUNKTNAME": "Beringer Randen", "LV95E": 2685741.763, "LV95N": 1284456.533, "LK25": "1031", "LFPNR": "10316191", "NOWAY": 0, "SECTOR": 3, "ZYKLUS": 2013 }, "geometry": { "type": "Point", "coordinates": [ 8.58101876133248, 47.705102456310513 ] } },
{ "type": "Feature", "properties": { "OBJEKTART": "LFP1", "TITEL": "NULL", "PUNKTNAME": "Berra", "LV95E": 2580516.07, "LV95N": 1169450.18, "LK25": "1225", "LFPNR": "12256020", "NOWAY": 1, "SECTOR": 1, "ZYKLUS": 2011 }, "geometry": { "type": "Point", "coordinates": [ 7.183998293663365, 46.675989609506949 ] } },
{ "type": "Feature", "properties": { "OBJEKTART": "LFP1", "TITEL": "NULL", "PUNKTNAME": "Blasenfluh AzP E", "LV95E": 2619721.465, "LV95N": 1197950.253, "LK25": "1167", "LFPNR": "11678370", "NOWAY": 1, "SECTOR": 2, "ZYKLUS": 2018 }, "geometry": { "type": "Point", "coordinates": [ 7.697606419437218, 46.932354082665569 ] } },
{ "type": "Feature", "properties": { "OBJEKTART": "LFP1", "TITEL": "NULL", "PUNKTNAME": "Bochet", "LV95E": 2506767.33, "LV95N": 1144345.691, "LK25": "1261", "LFPNR": "12614080", "NOWAY": 0, "SECTOR": 1, "ZYKLUS": 2017 }, "geometry": { "type": "Point", "coordinates": [ 6.225337109120707, 46.443947413281407 ] } },
{ "type": "Feature", "properties": { "OBJEKTART": "LFP1", "TITEL": "NULL", "PUNKTNAME": "Bougy", "LV95E": 2516887.29, "LV95N": 1148753.651, "LK25": "1242", "LFPNR": "12420328", "NOWAY": 0, "SECTOR": 1, "ZYKLUS": 2017 }, "geometry": { "type": "Point", "coordinates": [ 6.356225162597792, 46.484929359507525 ] } },
{ "type": "Feature", "properties": { "OBJEKTART": "LFP1", "TITEL": "NULL", "PUNKTNAME": "Bougy", "LV95E": 2516889.67, "LV95N": 1148746.741, "LK25": "1242", "LFPNR": "12420320", "NOWAY": 0, "SECTOR": 1, "ZYKLUS": 2011 }, "geometry": { "type": "Point", "coordinates": [ 6.356257397890068, 46.48486750156443 ] } },
{ "type": "Feature", "properties": { "OBJEKTART": "LFP1", "TITEL": "NULL", "PUNKTNAME": "Brütten Signal", "LV95E": 2693041.776, "LV95N": 1258941.18, "LK25": "1072", "LFPNR": "10721342", "NOWAY": 1, "SECTOR": 4, "ZYKLUS": 2020 }, "geometry": { "type": "Point", "coordinates": [ 8.672919117818976, 47.474659727653716 ] } },
{ "type": "Feature", "properties": { "OBJEKTART": "LFP1", "TITEL": "NULL", "PUNKTNAME": "Bucheggberg Süd", "LV95E": 2602182.59, "LV95N": 1218845.375, "LK25": "1126", "LFPNR": "11268371", "NOWAY": 1, "SECTOR": 1, "ZYKLUS": 2017 }, "geometry": { "type": "Point", "coordinates": [ 7.467390982655339, 47.120594030133688 ] } },
{ "type": "Feature", "properties": { "OBJEKTART": "LFP1", "TITEL": "NULL", "PUNKTNAME": "Buochserhorn", "LV95E": 2675377.1, "LV95N": 1199864.6, "LK25": "1171", "LFPNR": "11711230", "NOWAY": 0, "SECTOR": 2, "ZYKLUS": 2018 }, "geometry": { "type": "Point", "coordinates": [ 8.428720228287425, 46.945591885657883 ] } },
{ "type": "Feature", "properties": { "OBJEKTART": "LFP1", "TITEL": "NULL", "PUNKTNAME": "Cadenazzo", "LV95E": 2717768.059, "LV95N": 1112347.609, "LK25": "1313", "LFPNR": "13135240", "NOWAY": 0, "SECTOR": 5, "ZYKLUS": 2015 }, "geometry": { "type": "Point", "coordinates": [ 8.963079981024348, 46.152317115820381 ] } },
{ "type": "Feature", "properties": { "OBJEKTART": "LFP1", "TITEL": "NULL", "PUNKTNAME": "Cardada", "LV95E": 2704391.64, "LV95N": 1117490.319, "LK25": "1312", "LFPNR": "13127100", "NOWAY": 1, "SECTOR": 5, "ZYKLUS": 2015 }, "geometry": { "type": "Point", "coordinates": [ 8.791114319403087, 46.200777311325545 ] } },
{ "type": "Feature", "properties": { "OBJEKTART": "LFP1", "TITEL": "NULL", "PUNKTNAME": "Châtel sur Rolle Est", "LV95E": 2514625.13, "LV95N": 1148338.26, "LK25": "1241", "LFPNR": "12418350", "NOWAY": 0, "SECTOR": 1, "ZYKLUS": 2011 }, "geometry": { "type": "Point", "coordinates": [ 6.326844668627946, 46.480908038649865 ] } },
{ "type": "Feature", "properties": { "OBJEKTART": "LFP1", "TITEL": "NULL", "PUNKTNAME": "Châtel sur Rolle Ouest", "LV95E": 2513652.218, "LV95N": 1148259.519, "LK25": "1241", "LFPNR": "12418360", "NOWAY": 0, "SECTOR": 1, "ZYKLUS": 2012 }, "geometry": { "type": "Point", "coordinates": [ 6.314191345003736, 46.480074872607091 ] } },
{ "type": "Feature", "properties": { "OBJEKTART": "LFP1", "TITEL": "NULL", "PUNKTNAME": "Chaille", "LV95E": 2548106.613, "LV95N": 1198059.045, "LK25": "1163", "LFPNR": "11638270", "NOWAY": 1, "SECTOR": 1, "ZYKLUS": 2011 }, "geometry": { "type": "Point", "coordinates": [ 6.757193820834043, 46.931589302370533 ] } },
{ "type": "Feature", "properties": { "OBJEKTART": "LFP1", "TITEL": "NULL", "PUNKTNAME": "Chalet de la Ville", "LV95E": 2539405.812, "LV95N": 1156828.198, "LK25": "1243", "LFPNR": "12433060", "NOWAY": 0, "SECTOR": 1, "ZYKLUS": 2013 }, "geometry": { "type": "Point", "coordinates": [ 6.648409686596441, 46.559981220234299 ] } },
{ "type": "Feature", "properties": { "OBJEKTART": "LFP1", "TITEL": "NULL", "PUNKTNAME": "Chalet-derrière N Exc", "LV95E": 2521515.717, "LV95N": 1170050.342, "LK25": "1202", "LFPNR": "12023410", "NOWAY": 0, "SECTOR": 1, "ZYKLUS": 2011 }, "geometry": { "type": "Point", "coordinates": [ 6.412864402103404, 46.677048089382097 ] } },
{ "type": "Feature", "properties": { "OBJEKTART": "LFP1", "TITEL": "NULL", "PUNKTNAME": "Chamossaire", "LV95E": 2570936.15, "LV95N": 1130675.78, "LK25": "1285", "LFPNR": "12851140", "NOWAY": 1, "SECTOR": 4, "ZYKLUS": 2014 }, "geometry": { "type": "Point", "coordinates": [ 7.061243614364048, 46.326845345592041 ] } },
{ "type": "Feature", "properties": { "OBJEKTART": "LFP1", "TITEL": "NULL", "PUNKTNAME": "Champtauroz", "LV95E": 2549920.998, "LV95N": 1179119.929, "LK25": "1203", "LFPNR": "12038201", "NOWAY": 1, "SECTOR": 1, "ZYKLUS": 2011 }, "geometry": { "type": "Point", "coordinates": [ 6.783100650005029, 46.76137149363867 ] } },
{ "type": "Feature", "properties": { "OBJEKTART": "LFP1", "TITEL": "NULL", "PUNKTNAME": "Chasseron", "LV95E": 2531332.62, "LV95N": 1189357.1, "LK25": "1182", "LFPNR": "11828147", "NOWAY": 0, "SECTOR": 1, "ZYKLUS": 2017 }, "geometry": { "type": "Point", "coordinates": [ 6.538256479352563, 46.851793083906223 ] } },
{ "type": "Feature", "properties": { "OBJEKTART": "LFP1", "TITEL": "NULL", "PUNKTNAME": "Chasseron", "LV95E": 2531332.65, "LV95N": 1189357.09, "LK25": "1182", "LFPNR": "11828140", "NOWAY": 0, "SECTOR": 1, "ZYKLUS": 2017 }, "geometry": { "type": "Point", "coordinates": [ 6.538256874190002, 46.85179299706121 ] } },
{ "type": "Feature", "properties": { "OBJEKTART": "LFP1", "TITEL": "NULL", "PUNKTNAME": "Chaumont-Borne", "LV95E": 2563935.179, "LV95N": 1209177.598, "LK25": "1144", "LFPNR": "11446303", "NOWAY": 0, "SECTOR": 1, "ZYKLUS": 2017 }, "geometry": { "type": "Point", "coordinates": [ 6.964155373955319, 47.032650659426388 ] } },
{ "type": "Feature", "properties": { "OBJEKTART": "LFP1", "TITEL": "NULL", "PUNKTNAME": "Chaumont-Borne", "LV95E": 2563940.08, "LV95N": 1209171.468, "LK25": "1144", "LFPNR": "11446300", "NOWAY": 0, "SECTOR": 1, "ZYKLUS": 2017 }, "geometry": { "type": "Point", "coordinates": [ 6.964220339818383, 47.03259578819091 ] } },
{ "type": "Feature", "properties": { "OBJEKTART": "LFP1", "TITEL": "NULL", "PUNKTNAME": "Chavannes", "LV95E": 2552589.151, "LV95N": 1168207.769, "LK25": "1224", "LFPNR": "12241070", "NOWAY": 0, "SECTOR": 1, "ZYKLUS": 2017 }, "geometry": { "type": "Point", "coordinates": [ 6.819155636530117, 46.663410193241653 ] } },
{ "type": "Feature", "properties": { "OBJEKTART": "LFP1", "TITEL": "NULL", "PUNKTNAME": "Chrischona", "LV95E": 2618161.821, "LV95N": 1269167.077, "LK25": "1047", "LFPNR": "10478032", "NOWAY": 0, "SECTOR": 2, "ZYKLUS": 2018 }, "geometry": { "type": "Point", "coordinates": [ 7.679993581512933, 47.572957019726047 ] } },
{ "type": "Feature", "properties": { "OBJEKTART": "LFP1", "TITEL": "NULL", "PUNKTNAME": "Chrischona", "LV95E": 2618168.436, "LV95N": 1269176.223, "LK25": "1047", "LFPNR": "10478039", "NOWAY": 0, "SECTOR": 2, "ZYKLUS": 2018 }, "geometry": { "type": "Point", "coordinates": [ 7.680081867811759, 47.573039092932866 ] } },
{ "type": "Feature", "properties": { "OBJEKTART": "LFP1", "TITEL": "NULL", "PUNKTNAME": "Chrischona", "LV95E": 2618166.26, "LV95N": 1269176.522, "LK25": "1047", "LFPNR": "10478031", "NOWAY": 0, "SECTOR": 2, "ZYKLUS": 2018 }, "geometry": { "type": "Point", "coordinates": [ 7.680052960885692, 47.573041842054202 ] } },
{ "type": "Feature", "properties": { "OBJEKTART": "LFP1", "TITEL": "NULL", "PUNKTNAME": "Chrischona", "LV95E": 2618168.068, "LV95N": 1269173.324, "LK25": "1047", "LFPNR": "10478034", "NOWAY": 0, "SECTOR": 2, "ZYKLUS": 2018 }, "geometry": { "type": "Point", "coordinates": [ 7.680076858896497, 47.573013030574586 ] } },
{ "type": "Feature", "properties": { "OBJEKTART": "LFP1", "TITEL": "NULL", "PUNKTNAME": "Chrischona", "LV95E": 2618168.486, "LV95N": 1269176.195, "LK25": "1047", "LFPNR": "10478030", "NOWAY": 0, "SECTOR": 2, "ZYKLUS": 2018 }, "geometry": { "type": "Point", "coordinates": [ 7.680082531171966, 47.573038839732043 ] } },
{ "type": "Feature", "properties": { "OBJEKTART": "LFP1", "TITEL": "NULL", "PUNKTNAME": "Chrischona", "LV95E": 2618181.361, "LV95N": 1269096.669, "LK25": "1047", "LFPNR": "10478033", "NOWAY": 0, "SECTOR": 2, "ZYKLUS": 2018 }, "geometry": { "type": "Point", "coordinates": [ 7.680250396004385, 47.572323257525412 ] } },
{ "type": "Feature", "properties": { "OBJEKTART": "LFP1", "TITEL": "NULL", "PUNKTNAME": "Cossonay", "LV95E": 2528770.259, "LV95N": 1161933.451, "LK25": "1222", "LFPNR": "12226390", "NOWAY": 0, "SECTOR": 1, "ZYKLUS": 2017 }, "geometry": { "type": "Point", "coordinates": [ 6.508929544955436, 46.60485259901224 ] } },
{ "type": "Feature", "properties": { "OBJEKTART": "LFP1", "TITEL": "NULL", "PUNKTNAME": "Crêt Blanc N", "LV95E": 2528483.661, "LV95N": 1154209.9, "LK25": "1242", "LFPNR": "12426190", "NOWAY": 0, "SECTOR": 1, "ZYKLUS": 2011 }, "geometry": { "type": "Point", "coordinates": [ 6.506388978648641, 46.53534907425967 ] } },
{ "type": "Feature", "properties": { "OBJEKTART": "LFP1", "TITEL": "NULL", "PUNKTNAME": "Crêt Blanc S", "LV95E": 2528476.69, "LV95N": 1154054.12, "LK25": "1242", "LFPNR": "12426210", "NOWAY": 0, "SECTOR": 1, "ZYKLUS": 2011 }, "geometry": { "type": "Point", "coordinates": [ 6.506322287518419, 46.533947093484258 ] } },
{ "type": "Feature", "properties": { "OBJEKTART": "LFP1", "TITEL": "NULL", "PUNKTNAME": "Cuarny SW", "LV95E": 2542163.448, "LV95N": 1180551.682, "LK25": "1203", "LFPNR": "12035081", "NOWAY": 0, "SECTOR": 1, "ZYKLUS": 2011 }, "geometry": { "type": "Point", "coordinates": [ 6.681378836053493, 46.77362062913469 ] } },
{ "type": "Feature", "properties": { "OBJEKTART": "LFP1", "TITEL": "NULL", "PUNKTNAME": "Dôle", "LV95E": 2497073.14, "LV95N": 1142440.4, "LK25": "1260", "LFPNR": "12608080", "NOWAY": 1, "SECTOR": 1, "ZYKLUS": 2011 }, "geometry": { "type": "Point", "coordinates": [ 6.099626653304401, 46.425389972812972 ] } },
{ "type": "Feature", "properties": { "OBJEKTART": "LFP1", "TITEL": "NULL", "PUNKTNAME": "Daube Nord", "LV95E": 2635849.1, "LV95N": 1167318.01, "LK25": "1228", "LFPNR": "12287080", "NOWAY": 1, "SECTOR": 4, "ZYKLUS": 2014 }, "geometry": { "type": "Point", "coordinates": [ 7.906985571179479, 46.656137052637874 ] } },
{ "type": "Feature", "properties": { "OBJEKTART": "LFP1", "TITEL": "NULL", "PUNKTNAME": "Daube Süd", "LV95E": 2635850.01, "LV95N": 1167299.609, "LK25": "1228", "LFPNR": "12287081", "NOWAY": 1, "SECTOR": 4, "ZYKLUS": 2014 }, "geometry": { "type": "Point", "coordinates": [ 7.90699602633937, 46.655971480235692 ] } },
{ "type": "Feature", "properties": { "OBJEKTART": "LFP1", "TITEL": "NULL", "PUNKTNAME": "Dent de Vaulion", "LV95E": 2516764.679, "LV95N": 1170907.281, "LK25": "1202", "LFPNR": "12020661", "NOWAY": 1, "SECTOR": 1, "ZYKLUS": 2017 }, "geometry": { "type": "Point", "coordinates": [ 6.350621546707647, 46.684179375285716 ] } },
{ "type": "Feature", "properties": { "OBJEKTART": "LFP1", "TITEL": "NULL", "PUNKTNAME": "Dent de Vaulion", "LV95E": 2516817.408, "LV95N": 1170889.671, "LK25": "1202", "LFPNR": "12020660", "NOWAY": 1, "SECTOR": 1, "ZYKLUS": 2017 }, "geometry": { "type": "Point", "coordinates": [ 6.35131390349717, 46.684027565432849 ] } },
{ "type": "Feature", "properties": { "OBJEKTART": "LFP1", "TITEL": "NULL", "PUNKTNAME": "Dossenbach", "LV95E": 2630908.874, "LV95N": 1274011.09, "LK25": "1048", "LFPNR": "10485351", "NOWAY": 0, "SECTOR": 2, "ZYKLUS": 2018 }, "geometry": { "type": "Point", "coordinates": [ 7.849737485077164, 47.616046107289954 ] } },
{ "type": "Feature", "properties": { "OBJEKTART": "LFP1", "TITEL": "NULL", "PUNKTNAME": "Dreilinden", "LV95E": 2667021.673, "LV95N": 1212478.934, "LK25": "1150", "LFPNR": "11506210", "NOWAY": 1, "SECTOR": 2, "ZYKLUS": 2018 }, "geometry": { "type": "Point", "coordinates": [ 8.320842706411257, 47.059947307128077 ] } },
{ "type": "Feature", "properties": { "OBJEKTART": "LFP1", "TITEL": "NULL", "PUNKTNAME": "Elswil", "LV95E": 2585647.946, "LV95N": 1191463.35, "LK25": "1186", "LFPNR": "11860160", "NOWAY": 0, "SECTOR": 4, "ZYKLUS": 2020 }, "geometry": { "type": "Point", "coordinates": [ 7.250373105906117, 46.87413708725169 ] } },
{ "type": "Feature", "properties": { "OBJEKTART": "LFP1", "TITEL": "NULL", "PUNKTNAME": "Eysins", "LV95E": 2505528.21, "LV95N": 1137636.99, "LK25": "1261", "LFPNR": "12614406", "NOWAY": 0, "SECTOR": 1, "ZYKLUS": 2012 }, "geometry": { "type": "Point", "coordinates": [ 6.210582601713817, 46.383432061406097 ] } },
{ "type": "Feature", "properties": { "OBJEKTART": "LFP1", "TITEL": "NULL", "PUNKTNAME": "Eysins", "LV95E": 2505524.35, "LV95N": 1137632.76, "LK25": "1261", "LFPNR": "12614407", "NOWAY": 0, "SECTOR": 1, "ZYKLUS": 2012 }, "geometry": { "type": "Point", "coordinates": [ 6.210533294817714, 46.383393470252479 ] } },
{ "type": "Feature", "properties": { "OBJEKTART": "LFP1", "TITEL": "NULL", "PUNKTNAME": "Farnsburg", "LV95E": 2632531.274, "LV95N": 1260328.471, "LK25": "1068", "LFPNR": "10686310", "NOWAY": 0, "SECTOR": 2, "ZYKLUS": 2018 }, "geometry": { "type": "Point", "coordinates": [ 7.870316650783647, 47.492911949666791 ] } },
{ "type": "Feature", "properties": { "OBJEKTART": "LFP1", "TITEL": "NULL", "PUNKTNAME": "Farnsburg", "LV95E": 2632528.654, "LV95N": 1260329.143, "LK25": "1068", "LFPNR": "10686317", "NOWAY": 0, "SECTOR": 2, "ZYKLUS": 2018 }, "geometry": { "type": "Point", "coordinates": [ 7.870281932753695, 47.492918122941994 ] } },
{ "type": "Feature", "properties": { "OBJEKTART": "LFP1", "TITEL": "NULL", "PUNKTNAME": "Farnsburg", "LV95E": 2632528.279, "LV95N": 1260330.393, "LK25": "1068", "LFPNR": "10686316", "NOWAY": 0, "SECTOR": 2, "ZYKLUS": 2018 }, "geometry": { "type": "Point", "coordinates": [ 7.87027704768031, 47.492929383696783 ] } },
{ "type": "Feature", "properties": { "OBJEKTART": "LFP1", "TITEL": "NULL", "PUNKTNAME": "Faux d'Enson", "LV95E": 2563752.23, "LV95N": 1245918.6, "LK25": "1084", "LFPNR": "10846511", "NOWAY": 0, "SECTOR": 1, "ZYKLUS": 2017 }, "geometry": { "type": "Point", "coordinates": [ 6.958784285700195, 47.363108262953055 ] } },
{ "type": "Feature", "properties": { "OBJEKTART": "LFP1", "TITEL": "NULL", "PUNKTNAME": "Faux d'Enson", "LV95E": 2563749.23, "LV95N": 1245919.17, "LK25": "1084", "LFPNR": "10846518", "NOWAY": 0, "SECTOR": 1, "ZYKLUS": 2017 }, "geometry": { "type": "Point", "coordinates": [ 6.958744527021703, 47.363113224120198 ] } },
{ "type": "Feature", "properties": { "OBJEKTART": "LFP1", "TITEL": "NULL", "PUNKTNAME": "Faux d'Enson", "LV95E": 2563749.23, "LV95N": 1245919.17, "LK25": "1084", "LFPNR": "10846510", "NOWAY": 0, "SECTOR": 1, "ZYKLUS": 2017 }, "geometry": { "type": "Point", "coordinates": [ 6.958744527021703, 47.363113224120198 ] } },
{ "type": "Feature", "properties": { "OBJEKTART": "LFP1", "TITEL": "NULL", "PUNKTNAME": "Forch", "LV95E": 2691969.127, "LV95N": 1242080.142, "LK25": "1092", "LFPNR": "10920680", "NOWAY": 0, "SECTOR": 3, "ZYKLUS": 2013 }, "geometry": { "type": "Point", "coordinates": [ 8.655223777584172, 47.323177614096039 ] } },
{ "type": "Feature", "properties": { "OBJEKTART": "LFP1", "TITEL": "NULL", "PUNKTNAME": "Fribourg A", "LV95E": 2577684.008, "LV95N": 1184036.698, "LK25": "1185", "LFPNR": "11855573", "NOWAY": 0, "SECTOR": 1, "ZYKLUS": 2011 }, "geometry": { "type": "Point", "coordinates": [ 7.146272724948202, 46.807111774218235 ] } },
{ "type": "Feature", "properties": { "OBJEKTART": "LFP1", "TITEL": "NULL", "PUNKTNAME": "Fribourg B", "LV95E": 2577780.738, "LV95N": 1184015.507, "LK25": "1185", "LFPNR": "11855570", "NOWAY": 0, "SECTOR": 1, "ZYKLUS": 2011 }, "geometry": { "type": "Point", "coordinates": [ 7.147541008860403, 46.806924402784908 ] } },
{ "type": "Feature", "properties": { "OBJEKTART": "LFP1", "TITEL": "NULL", "PUNKTNAME": "Frienisberg", "LV95E": 2592381.25, "LV95N": 1208401.06, "LK25": "1146", "LFPNR": "11463460", "NOWAY": 0, "SECTOR": 1, "ZYKLUS": 2011 }, "geometry": { "type": "Point", "coordinates": [ 7.338409250378497, 47.026606591472188 ] } },
{ "type": "Feature", "properties": { "OBJEKTART": "LFP1", "TITEL": "NULL", "PUNKTNAME": "Froburg", "LV95E": 2634042.5, "LV95N": 1247670.91, "LK25": "1088", "LFPNR": "10887750", "NOWAY": 1, "SECTOR": 2, "ZYKLUS": 2018 }, "geometry": { "type": "Point", "coordinates": [ 7.889406684561637, 47.378994232072543 ] } },
{ "type": "Feature", "properties": { "OBJEKTART": "LFP1", "TITEL": "NULL", "PUNKTNAME": "Gäbris 'Astron.Punkte'", "LV95E": 2753238.92, "LV95N": 1249664.819, "LK25": "1095", "LFPNR": "10955300", "NOWAY": 0, "SECTOR": 3, "ZYKLUS": 2013 }, "geometry": { "type": "Point", "coordinates": [ 9.468026227874104, 47.379983009572939 ] } },
{ "type": "Feature", "properties": { "OBJEKTART": "LFP1", "TITEL": "NULL", "PUNKTNAME": "Gaiss", "LV95E": 2652972.98, "LV95N": 1277478.06, "LK25": "1049", "LFPNR": "10497020", "NOWAY": 0, "SECTOR": 2, "ZYKLUS": 2018 }, "geometry": { "type": "Point", "coordinates": [ 8.143612382759734, 47.645815445808836 ] } },
{ "type": "Feature", "properties": { "OBJEKTART": "LFP1", "TITEL": "NULL", "PUNKTNAME": "Gandlauenen", "LV95E": 2593732.14, "LV95N": 1150456.02, "LK25": "1246", "LFPNR": "12464320", "NOWAY": 1, "SECTOR": 4, "ZYKLUS": 2020 }, "geometry": { "type": "Point", "coordinates": [ 7.356982728105965, 46.505383223918294 ] } },
{ "type": "Feature", "properties": { "OBJEKTART": "LFP1", "TITEL": "NULL", "PUNKTNAME": "Ghürn", "LV95E": 2629892.55, "LV95N": 1223979.8, "LK25": "1128", "LFPNR": "11284217", "NOWAY": 0, "SECTOR": 2, "ZYKLUS": 2018 }, "geometry": { "type": "Point", "coordinates": [ 7.832881437296654, 47.166107857993659 ] } },
{ "type": "Feature", "properties": { "OBJEKTART": "LFP1", "TITEL": "NULL", "PUNKTNAME": "Ghürn A", "LV95E": 2629892.23, "LV95N": 1223977.79, "LK25": "1128", "LFPNR": "11284211", "NOWAY": 0, "SECTOR": 2, "ZYKLUS": 2018 }, "geometry": { "type": "Point", "coordinates": [ 7.832877083907155, 47.166089793171992 ] } },
{ "type": "Feature", "properties": { "OBJEKTART": "LFP1", "TITEL": "NULL", "PUNKTNAME": "Ghürn B", "LV95E": 2629893.94, "LV95N": 1223988.45, "LK25": "1128", "LFPNR": "11284213", "NOWAY": 0, "SECTOR": 2, "ZYKLUS": 2018 }, "geometry": { "type": "Point", "coordinates": [ 7.83290034201135, 47.166185599054984 ] } },
{ "type": "Feature", "properties": { "OBJEKTART": "LFP1", "TITEL": "NULL", "PUNKTNAME": "Ghürn BP", "LV95E": 2629892.54, "LV95N": 1223979.79, "LK25": "1128", "LFPNR": "11284212", "NOWAY": 0, "SECTOR": 2, "ZYKLUS": 2018 }, "geometry": { "type": "Point", "coordinates": [ 7.832881304747265, 47.166107768498286 ] } },
{ "type": "Feature", "properties": { "OBJEKTART": "LFP1", "TITEL": "NULL", "PUNKTNAME": "Ghürn NE", "LV95E": 2629893.68, "LV95N": 1223980.61, "LK25": "1128", "LFPNR": "11284216", "NOWAY": 0, "SECTOR": 2, "ZYKLUS": 2018 }, "geometry": { "type": "Point", "coordinates": [ 7.832896394208617, 47.166115092678304 ] } },
{ "type": "Feature", "properties": { "OBJEKTART": "LFP1", "TITEL": "NULL", "PUNKTNAME": "Ghürn SE", "LV95E": 2629893.33, "LV95N": 1223978.56, "LK25": "1128", "LFPNR": "11284215", "NOWAY": 0, "SECTOR": 2, "ZYKLUS": 2018 }, "geometry": { "type": "Point", "coordinates": [ 7.832891642503709, 47.166096669424597 ] } },
{ "type": "Feature", "properties": { "OBJEKTART": "LFP1", "TITEL": "NULL", "PUNKTNAME": "Ghürn SW", "LV95E": 2629891.33, "LV95N": 1223979.1, "LK25": "1128", "LFPNR": "11284214", "NOWAY": 0, "SECTOR": 2, "ZYKLUS": 2018 }, "geometry": { "type": "Point", "coordinates": [ 7.8328653006761, 47.166101616780011 ] } },
{ "type": "Feature", "properties": { "OBJEKTART": "LFP1", "TITEL": "NULL", "PUNKTNAME": "Gibloux", "LV95E": 2570121.726, "LV95N": 1171443.068, "LK25": "1205", "LFPNR": "12051510", "NOWAY": 1, "SECTOR": 1, "ZYKLUS": 2011 }, "geometry": { "type": "Point", "coordinates": [ 7.048024546077462, 46.69353059061072 ] } },
{ "type": "Feature", "properties": { "OBJEKTART": "LFP1", "TITEL": "NULL", "PUNKTNAME": "Gislifluh", "LV95E": 2650537.77, "LV95N": 1252948.631, "LK25": "1089", "LFPNR": "10896060", "NOWAY": 1, "SECTOR": 2, "ZYKLUS": 2014 }, "geometry": { "type": "Point", "coordinates": [ 8.108420058367896, 47.425403434408231 ] } },
{ "type": "Feature", "properties": { "OBJEKTART": "LFP1", "TITEL": "NULL", "PUNKTNAME": "Gislifluh", "LV95E": 2650529.88, "LV95N": 1252945.78, "LK25": "1089", "LFPNR": "10896063", "NOWAY": 1, "SECTOR": 2, "ZYKLUS": 2014 }, "geometry": { "type": "Point", "coordinates": [ 8.108315172020012, 47.425378398442206 ] } },
{ "type": "Feature", "properties": { "OBJEKTART": "LFP1", "TITEL": "NULL", "PUNKTNAME": "Giubiasco", "LV95E": 2720527.05, "LV95N": 1113969.883, "LK25": "1313", "LFPNR": "13136250", "NOWAY": 0, "SECTOR": 5, "ZYKLUS": 2015 }, "geometry": { "type": "Point", "coordinates": [ 8.999201836495024, 46.166419626185409 ] } },
{ "type": "Feature", "properties": { "OBJEKTART": "LFP1", "TITEL": "NULL", "PUNKTNAME": "Giubiasco", "LV95E": 2720530.01, "LV95N": 1113964.903, "LK25": "1313", "LFPNR": "13136252", "NOWAY": 0, "SECTOR": 5, "ZYKLUS": 2015 }, "geometry": { "type": "Point", "coordinates": [ 8.999238869261138, 46.166374307332269 ] } },
{ "type": "Feature", "properties": { "OBJEKTART": "LFP1", "TITEL": "NULL", "PUNKTNAME": "Giubiasco", "LV95E": 2720525.87, "LV95N": 1113971.873, "LK25": "1313", "LFPNR": "13136251", "NOWAY": 0, "SECTOR": 5, "ZYKLUS": 2015 }, "geometry": { "type": "Point", "coordinates": [ 8.999187074633763, 46.166437735019954 ] } },
{ "type": "Feature", "properties": { "OBJEKTART": "LFP1", "TITEL": "NULL", "PUNKTNAME": "Grundbühl", "LV95E": 2650991.612, "LV95N": 1264390.22, "LK25": "1069", "LFPNR": "10696140", "NOWAY": 0, "SECTOR": 2, "ZYKLUS": 2018 }, "geometry": { "type": "Point", "coordinates": [ 8.115742457645927, 47.528269870262854 ] } },
{ "type": "Feature", "properties": { "OBJEKTART": "LFP1", "TITEL": "NULL", "PUNKTNAME": "Guggershorn", "LV95E": 2592023.87, "LV95N": 1179867.99, "LK25": "1206", "LFPNR": "12063080", "NOWAY": 0, "SECTOR": 4, "ZYKLUS": 2020 }, "geometry": { "type": "Point", "coordinates": [ 7.334212498142308, 46.769940672206346 ] } },
{ "type": "Feature", "properties": { "OBJEKTART": "LFP1", "TITEL": "NULL", "PUNKTNAME": "Gurnigel", "LV95E": 2601672.48, "LV95N": 1177672.32, "LK25": "1206", "LFPNR": "12068160", "NOWAY": 0, "SECTOR": 4, "ZYKLUS": 2014 }, "geometry": { "type": "Point", "coordinates": [ 7.460523975644502, 46.750236419150802 ] } },
{ "type": "Feature", "properties": { "OBJEKTART": "LFP1", "TITEL": "NULL", "PUNKTNAME": "Gurten-West (A)", "LV95E": 2599872.356, "LV95N": 1196488.206, "LK25": "1166", "LFPNR": "11667770", "NOWAY": 0, "SECTOR": 4, "ZYKLUS": 2020 }, "geometry": { "type": "Point", "coordinates": [ 7.436957218956811, 46.919493470390549 ] } },
{ "type": "Feature", "properties": { "OBJEKTART": "LFP1", "TITEL": "NULL", "PUNKTNAME": "Hörnli", "LV95E": 2713536.84, "LV95N": 1247759.45, "LK25": "1093", "LFPNR": "10933363", "NOWAY": 0, "SECTOR": 3, "ZYKLUS": 2019 }, "geometry": { "type": "Point", "coordinates": [ 8.94190467186737, 47.370889388410092 ] } },
{ "type": "Feature", "properties": { "OBJEKTART": "LFP1", "TITEL": "NULL", "PUNKTNAME": "Hörnli", "LV95E": 2713529.78, "LV95N": 1247763.07, "LK25": "1093", "LFPNR": "10933360", "NOWAY": 0, "SECTOR": 3, "ZYKLUS": 2019 }, "geometry": { "type": "Point", "coordinates": [ 8.941812135398184, 47.370923158257334 ] } },
{ "type": "Feature", "properties": { "OBJEKTART": "LFP1", "TITEL": "NULL", "PUNKTNAME": "Hörnli NE", "LV95E": 2713543.64, "LV95N": 1247778.22, "LK25": "1093", "LFPNR": "10933361", "NOWAY": 0, "SECTOR": 3, "ZYKLUS": 2019 }, "geometry": { "type": "Point", "coordinates": [ 8.941999446546358, 47.371057007819815 ] } },
{ "type": "Feature", "properties": { "OBJEKTART": "LFP1", "TITEL": "NULL", "PUNKTNAME": "Hüttwilen", "LV95E": 2707857.939, "LV95N": 1275300.838, "LK25": "1053", "LFPNR": "10530080", "NOWAY": 0, "SECTOR": 3, "ZYKLUS": 2013 }, "geometry": { "type": "Point", "coordinates": [ 8.873398628324038, 47.619506562392161 ] } },
{ "type": "Feature", "properties": { "OBJEKTART": "LFP1", "TITEL": "NULL", "PUNKTNAME": "Hüttwilen", "LV95E": 2707809.849, "LV95N": 1275315.728, "LK25": "1053", "LFPNR": "10530081", "NOWAY": 0, "SECTOR": 3, "ZYKLUS": 2013 }, "geometry": { "type": "Point", "coordinates": [ 8.872762675554572, 47.619648360469085 ] } },
{ "type": "Feature", "properties": { "OBJEKTART": "LFP1", "TITEL": "NULL", "PUNKTNAME": "Hermance", "LV95E": 2507792.725, "LV95N": 1126878.667, "LK25": "1281", "LFPNR": "12815100", "NOWAY": 0, "SECTOR": 1, "ZYKLUS": 2012 }, "geometry": { "type": "Point", "coordinates": [ 6.242150680942684, 46.286980938504293 ] } },
{ "type": "Feature", "properties": { "OBJEKTART": "LFP1", "TITEL": "NULL", "PUNKTNAME": "Hohe Winde", "LV95E": 2610670.565, "LV95N": 1243556.84, "LK25": "1087", "LFPNR": "10874450", "NOWAY": 1, "SECTOR": 2, "ZYKLUS": 2018 }, "geometry": { "type": "Point", "coordinates": [ 7.579825543579823, 47.342782298594834 ] } },
{ "type": "Feature", "properties": { "OBJEKTART": "LFP1", "TITEL": "NULL", "PUNKTNAME": "Hohe Winde Exz", "LV95E": 2610669.775, "LV95N": 1243582.06, "LK25": "1087", "LFPNR": "10874451", "NOWAY": 1, "SECTOR": 2, "ZYKLUS": 2018 }, "geometry": { "type": "Point", "coordinates": [ 7.579815686684605, 47.343009148328122 ] } },
{ "type": "Feature", "properties": { "OBJEKTART": "LFP1", "TITEL": "NULL", "PUNKTNAME": "Hohentwiel", "LV95E": 2703471.06, "LV95N": 1291367.15, "LK25": "1012", "LFPNR": "10126010", "NOWAY": 0, "SECTOR": 3, "ZYKLUS": 2013 }, "geometry": { "type": "Point", "coordinates": [ 8.818813998848189, 47.764679230483651 ] } },
{ "type": "Feature", "properties": { "OBJEKTART": "LFP1", "TITEL": "NULL", "PUNKTNAME": "Hohentwiel", "LV95E": 2703465.03, "LV95N": 1291310.63, "LK25": "1012", "LFPNR": "10126012", "NOWAY": 0, "SECTOR": 3, "ZYKLUS": 2013 }, "geometry": { "type": "Point", "coordinates": [ 8.818720320670398, 47.764171980255838 ] } },
{ "type": "Feature", "properties": { "OBJEKTART": "LFP1", "TITEL": "NULL", "PUNKTNAME": "Hohentwiel", "LV95E": 2703484.35, "LV95N": 1291370.33, "LK25": "1012", "LFPNR": "10126018", "NOWAY": 0, "SECTOR": 3, "ZYKLUS": 2013 }, "geometry": { "type": "Point", "coordinates": [ 8.818991983077476, 47.764705721095318 ] } },
{ "type": "Feature", "properties": { "OBJEKTART": "LFP1", "TITEL": "NULL", "PUNKTNAME": "Hohentwiel", "LV95E": 2703479.89, "LV95N": 1291362.69, "LK25": "1012", "LFPNR": "10126019", "NOWAY": 0, "SECTOR": 3, "ZYKLUS": 2013 }, "geometry": { "type": "Point", "coordinates": [ 8.818930710834229, 47.764637731075517 ] } },
{ "type": "Feature", "properties": { "OBJEKTART": "LFP1", "TITEL": "NULL", "PUNKTNAME": "Hohentwiel", "LV95E": 2703446.03, "LV95N": 1291336.26, "LK25": "1012", "LFPNR": "10126011", "NOWAY": 0, "SECTOR": 3, "ZYKLUS": 2013 }, "geometry": { "type": "Point", "coordinates": [ 8.818472947716527, 47.764405439813558 ] } },
{ "type": "Feature", "properties": { "OBJEKTART": "LFP1", "TITEL": "NULL", "PUNKTNAME": "Hohentwiel", "LV95E": 2703479.08, "LV95N": 1291363.93, "LK25": "1012", "LFPNR": "10126013", "NOWAY": 0, "SECTOR": 3, "ZYKLUS": 2013 }, "geometry": { "type": "Point", "coordinates": [ 8.818920199503367, 47.764649008786314 ] } },
{ "type": "Feature", "properties": { "OBJEKTART": "LFP1", "TITEL": "NULL", "PUNKTNAME": "Hoher Randen", "LV95E": 2684676.181, "LV95N": 1292181.527, "LK25": "1011", "LFPNR": "10116092", "NOWAY": 0, "SECTOR": 3, "ZYKLUS": 2019 }, "geometry": { "type": "Point", "coordinates": [ 8.568304956452097, 47.77470532351591 ] } },
{ "type": "Feature", "properties": { "OBJEKTART": "LFP1", "TITEL": "NULL", "PUNKTNAME": "Hoher Randen", "LV95E": 2684624.151, "LV95N": 1292201.417, "LK25": "1011", "LFPNR": "10116090", "NOWAY": 0, "SECTOR": 3, "ZYKLUS": 2019 }, "geometry": { "type": "Point", "coordinates": [ 8.567614724607619, 47.774890908777373 ] } },
{ "type": "Feature", "properties": { "OBJEKTART": "LFP1", "TITEL": "NULL", "PUNKTNAME": "Homberg bei Reinach", "LV95E": 2656406.099, "LV95N": 1236416.067, "LK25": "1110", "LFPNR": "11100317", "NOWAY": 0, "SECTOR": 2, "ZYKLUS": 2018 }, "geometry": { "type": "Point", "coordinates": [ 8.184110112732732, 47.276234543359138 ] } },
{ "type": "Feature", "properties": { "OBJEKTART": "LFP1", "TITEL": "NULL", "PUNKTNAME": "Homberg bei Reinach", "LV95E": 2656409.439, "LV95N": 1236411.267, "LK25": "1110", "LFPNR": "11100310", "NOWAY": 0, "SECTOR": 2, "ZYKLUS": 2018 }, "geometry": { "type": "Point", "coordinates": [ 8.184153650291181, 47.276191086354103 ] } },
{ "type": "Feature", "properties": { "OBJEKTART": "LFP1", "TITEL": "NULL", "PUNKTNAME": "Homburg", "LV95E": 2719675.256, "LV95N": 1277982.755, "LK25": "1053", "LFPNR": "10536010", "NOWAY": 0, "SECTOR": 3, "ZYKLUS": 2014 }, "geometry": { "type": "Point", "coordinates": [ 9.031281217871953, 47.641571285788743 ] } },
{ "type": "Feature", "properties": { "OBJEKTART": "LFP1", "TITEL": "NULL", "PUNKTNAME": "Hungerberg", "LV95E": 2645160.247, "LV95N": 1249928.819, "LK25": "1089", "LFPNR": "10894250", "NOWAY": 0, "SECTOR": 2, "ZYKLUS": 2018 }, "geometry": { "type": "Point", "coordinates": [ 8.036847759886232, 47.39863418664752 ] } },
{ "type": "Feature", "properties": { "OBJEKTART": "LFP1", "TITEL": "NULL", "PUNKTNAME": "Hunzenberg", "LV95E": 2716832.571, "LV95N": 1254464.963, "LK25": "1073", "LFPNR": "10734550", "NOWAY": 0, "SECTOR": 3, "ZYKLUS": 2019 }, "geometry": { "type": "Point", "coordinates": [ 8.987282812450388, 47.430612032660356 ] } },
{ "type": "Feature", "properties": { "OBJEKTART": "LFP1", "TITEL": "NULL", "PUNKTNAME": "HZP Brütten", "LV95E": 2693149.442, "LV95N": 1258875.874, "LK25": "1072", "LFPNR": "10721349", "NOWAY": 0, "SECTOR": 3, "ZYKLUS": 2019 }, "geometry": { "type": "Point", "coordinates": [ 8.674333539797273, 47.474057199581573 ] } },
{ "type": "Feature", "properties": { "OBJEKTART": "LFP1", "TITEL": "NULL", "PUNKTNAME": "Irchel", "LV95E": 2688975.4, "LV95N": 1266209.638, "LK25": "1051", "LFPNR": "10518530", "NOWAY": 1, "SECTOR": 3, "ZYKLUS": 2019 }, "geometry": { "type": "Point", "coordinates": [ 8.620434934007875, 47.540586559036264 ] } },
{ "type": "Feature", "properties": { "OBJEKTART": "LFP1", "TITEL": "NULL", "PUNKTNAME": "Küssaburg", "LV95E": 2668761.789, "LV95N": 1272752.021, "LK25": "1050", "LFPNR": "10506012", "NOWAY": 0, "SECTOR": 2, "ZYKLUS": 2018 }, "geometry": { "type": "Point", "coordinates": [ 8.352988555218325, 47.601849371261004 ] } },
{ "type": "Feature", "properties": { "OBJEKTART": "LFP1", "TITEL": "NULL", "PUNKTNAME": "Küssaburg", "LV95E": 2668821.775, "LV95N": 1272754.306, "LK25": "1050", "LFPNR": "10506011", "NOWAY": 0, "SECTOR": 2, "ZYKLUS": 2018 }, "geometry": { "type": "Point", "coordinates": [ 8.353786507724719, 47.601863632234441 ] } },
{ "type": "Feature", "properties": { "OBJEKTART": "LFP1", "TITEL": "NULL", "PUNKTNAME": "Küssaburg", "LV95E": 2668821.16, "LV95N": 1272762.6, "LK25": "1050", "LFPNR": "10506019", "NOWAY": 0, "SECTOR": 2, "ZYKLUS": 2018 }, "geometry": { "type": "Point", "coordinates": [ 8.353779616429339, 47.601938284275384 ] } },
{ "type": "Feature", "properties": { "OBJEKTART": "LFP1", "TITEL": "NULL", "PUNKTNAME": "Koordinaten-Ursprung", "LV95E": 2600000.0, "LV95N": 1200000.0, "LK25": "1166", "LFPNR": "11667410", "NOWAY": 0, "SECTOR": 4, "ZYKLUS": 2020 }, "geometry": { "type": "Point", "coordinates": [ 7.43863242087181, 46.951082771871093 ] } },
{ "type": "Feature", "properties": { "OBJEKTART": "LFP1", "TITEL": "NULL", "PUNKTNAME": "Lägern", "LV95E": 2672517.69, "LV95N": 1259397.55, "LK25": "1071", "LFPNR": "10710231", "NOWAY": 0, "SECTOR": 2, "ZYKLUS": 2018 }, "geometry": { "type": "Point", "coordinates": [ 8.400751195429555, 47.48134722161079 ] } },
{ "type": "Feature", "properties": { "OBJEKTART": "LFP1", "TITEL": "NULL", "PUNKTNAME": "Lägern", "LV95E": 2672507.72, "LV95N": 1259415.83, "LK25": "1071", "LFPNR": "10710230", "NOWAY": 0, "SECTOR": 2, "ZYKLUS": 2018 }, "geometry": { "type": "Point", "coordinates": [ 8.400621904512498, 47.481512717833887 ] } },
{ "type": "Feature", "properties": { "OBJEKTART": "LFP1", "TITEL": "NULL", "PUNKTNAME": "Lötschberg-Axpunkt N, St", "LV95E": 2617474.306, "LV95N": 1147585.676, "LK25": "1247", "LFPNR": "12477473", "NOWAY": 0, "SECTOR": 4, "ZYKLUS": 2020 }, "geometry": { "type": "Point", "coordinates": [ 7.66618633156425, 46.479366535026415 ] } },
{ "type": "Feature", "properties": { "OBJEKTART": "LFP1", "TITEL": "NULL", "PUNKTNAME": "Lötschberg-Axpunkt Nord", "LV95E": 2617470.806, "LV95N": 1147576.816, "LK25": "1247", "LFPNR": "12477470", "NOWAY": 0, "SECTOR": 4, "ZYKLUS": 2020 }, "geometry": { "type": "Point", "coordinates": [ 7.666140422360214, 46.479286925236451 ] } },
{ "type": "Feature", "properties": { "OBJEKTART": "LFP1", "TITEL": "NULL", "PUNKTNAME": "Laubberg", "LV95E": 2653478.36, "LV95N": 1266309.605, "LK25": "1049", "LFPNR": "10498340", "NOWAY": 0, "SECTOR": 2, "ZYKLUS": 2016 }, "geometry": { "type": "Point", "coordinates": [ 8.148992973689577, 47.545334093971782 ] } },
{ "type": "Feature", "properties": { "OBJEKTART": "LFP1", "TITEL": "NULL", "PUNKTNAME": "Lausanne", "LV95E": 2538700.902, "LV95N": 1153578.314, "LK25": "1243", "LFPNR": "12433242", "NOWAY": 0, "SECTOR": 1, "ZYKLUS": 2013 }, "geometry": { "type": "Point", "coordinates": [ 6.63964975942288, 46.530683765574587 ] } },
{ "type": "Feature", "properties": { "OBJEKTART": "LFP1", "TITEL": "NULL", "PUNKTNAME": "Le Plan", "LV95E": 2561078.856, "LV95N": 1205364.279, "LK25": "1164", "LFPNR": "11645040", "NOWAY": 1, "SECTOR": 1, "ZYKLUS": 2011 }, "geometry": { "type": "Point", "coordinates": [ 6.926906132000473, 46.998188391495376 ] } },
{ "type": "Feature", "properties": { "OBJEKTART": "LFP1", "TITEL": "NULL", "PUNKTNAME": "Le Soliat Nord", "LV95E": 2545322.91, "LV95N": 1198029.15, "LK25": "1163", "LFPNR": "11636210", "NOWAY": 1, "SECTOR": 1, "ZYKLUS": 2011 }, "geometry": { "type": "Point", "coordinates": [ 6.720645173353102, 46.931096632175013 ] } },
{ "type": "Feature", "properties": { "OBJEKTART": "LFP1", "TITEL": "NULL", "PUNKTNAME": "Lema", "LV95E": 2707918.603, "LV95N": 1099738.621, "LK25": "1333", "LFPNR": "13330140", "NOWAY": 1, "SECTOR": 5, "ZYKLUS": 2013 }, "geometry": { "type": "Point", "coordinates": [ 8.832712798069918, 46.040560024695608 ] } },
{ "type": "Feature", "properties": { "OBJEKTART": "LFP1", "TITEL": "NULL", "PUNKTNAME": "Lens", "LV95E": 2599904.012, "LV95N": 1124626.932, "LK25": "1286", "LFPNR": "12867312", "NOWAY": 1, "SECTOR": 4, "ZYKLUS": 2020 }, "geometry": { "type": "Point", "coordinates": [ 7.437399029686246, 46.27306459283048 ] } },
{ "type": "Feature", "properties": { "OBJEKTART": "LFP1", "TITEL": "NULL", "PUNKTNAME": "Lens", "LV95E": 2599911.562, "LV95N": 1124625.251, "LK25": "1286", "LFPNR": "12867317", "NOWAY": 1, "SECTOR": 4, "ZYKLUS": 2020 }, "geometry": { "type": "Point", "coordinates": [ 7.437496971097577, 46.273049473047195 ] } },
{ "type": "Feature", "properties": { "OBJEKTART": "LFP1", "TITEL": "NULL", "PUNKTNAME": "Lovens", "LV95E": 2567483.86, "LV95N": 1180274.85, "LK25": "1204", "LFPNR": "12048060", "NOWAY": 0, "SECTOR": 1, "ZYKLUS": 2017 }, "geometry": { "type": "Point", "coordinates": [ 7.012910822945551, 46.772851538595539 ] } },
{ "type": "Feature", "properties": { "OBJEKTART": "LFP1", "TITEL": "NULL", "PUNKTNAME": "Lueg", "LV95E": 2620266.111, "LV95N": 1213733.357, "LK25": "1148", "LFPNR": "11480180", "NOWAY": 0, "SECTOR": 2, "ZYKLUS": 2018 }, "geometry": { "type": "Point", "coordinates": [ 7.705461258037065, 47.074307261377903 ] } },
{ "type": "Feature", "properties": { "OBJEKTART": "LFP1", "TITEL": "NULL", "PUNKTNAME": "Lugano", "LV95E": 2716287.646, "LV95N": 1095692.267, "LK25": "1353", "LFPNR": "13534160", "NOWAY": 0, "SECTOR": 5, "ZYKLUS": 2015 }, "geometry": { "type": "Point", "coordinates": [ 8.939796551487447, 46.002778145566211 ] } },
{ "type": "Feature", "properties": { "OBJEKTART": "LFP1", "TITEL": "NULL", "PUNKTNAME": "Lutzenland", "LV95E": 2740235.42, "LV95N": 1249895.35, "LK25": "1094", "LFPNR": "10947287", "NOWAY": 0, "SECTOR": 3, "ZYKLUS": 2019 }, "geometry": { "type": "Point", "coordinates": [ 9.295955718356158, 47.384952901006308 ] } },
{ "type": "Feature", "properties": { "OBJEKTART": "LFP1", "TITEL": "NULL", "PUNKTNAME": "Lutzenland", "LV95E": 2740235.42, "LV95N": 1249895.35, "LK25": "1094", "LFPNR": "10947280", "NOWAY": 0, "SECTOR": 3, "ZYKLUS": 2019 }, "geometry": { "type": "Point", "coordinates": [ 9.295955718356158, 47.384952901006308 ] } },
{ "type": "Feature", "properties": { "OBJEKTART": "LFP1", "TITEL": "NULL", "PUNKTNAME": "Matthöhe", "LV95E": 2644004.21, "LV95N": 1213052.45, "LK25": "1149", "LFPNR": "11493200", "NOWAY": 0, "SECTOR": 2, "ZYKLUS": 2018 }, "geometry": { "type": "Point", "coordinates": [ 8.017931349247819, 47.067033027744031 ] } },
{ "type": "Feature", "properties": { "OBJEKTART": "LFP1", "TITEL": "NULL", "PUNKTNAME": "Middes", "LV95E": 2562935.74, "LV95N": 1179871.49, "LK25": "1204", "LFPNR": "12046100", "NOWAY": 0, "SECTOR": 1, "ZYKLUS": 2017 }, "geometry": { "type": "Point", "coordinates": [ 6.953397739591139, 46.76898503957154 ] } },
{ "type": "Feature", "properties": { "OBJEKTART": "LFP1", "TITEL": "NULL", "PUNKTNAME": "Middes", "LV95E": 2562923.39, "LV95N": 1179867.091, "LK25": "1204", "LFPNR": "12046103", "NOWAY": 0, "SECTOR": 1, "ZYKLUS": 2017 }, "geometry": { "type": "Point", "coordinates": [ 6.953236417244516, 46.768944780501378 ] } },
{ "type": "Feature", "properties": { "OBJEKTART": "LFP1", "TITEL": "NULL", "PUNKTNAME": "Moléson", "LV95E": 2567669.55, "LV95N": 1155365.57, "LK25": "1245", "LFPNR": "12450100", "NOWAY": 1, "SECTOR": 1, "ZYKLUS": 2012 }, "geometry": { "type": "Point", "coordinates": [ 7.0170993397388, 46.548792237958622 ] } },
{ "type": "Feature", "properties": { "OBJEKTART": "LFP1", "TITEL": "NULL", "PUNKTNAME": "Monlési", "LV95E": 2535215.411, "LV95N": 1198126.159, "LK25": "1163", "LFPNR": "11631180", "NOWAY": 1, "SECTOR": 1, "ZYKLUS": 2011 }, "geometry": { "type": "Point", "coordinates": [ 6.587915199640864, 46.931058564786717 ] } },
{ "type": "Feature", "properties": { "OBJEKTART": "LFP1", "TITEL": "NULL", "PUNKTNAME": "Mont de Tavannes", "LV95E": 2582913.851, "LV95N": 1228293.865, "LK25": "1125", "LFPNR": "11257090", "NOWAY": 0, "SECTOR": 1, "ZYKLUS": 2017 }, "geometry": { "type": "Point", "coordinates": [ 7.213113742591795, 47.205361530658401 ] } },
{ "type": "Feature", "properties": { "OBJEKTART": "LFP1", "TITEL": "NULL", "PUNKTNAME": "Monte Generoso", "LV95E": 2722656.39, "LV95N": 1087867.763, "LK25": "1353", "LFPNR": "13537250", "NOWAY": 1, "SECTOR": 5, "ZYKLUS": 2016 }, "geometry": { "type": "Point", "coordinates": [ 9.019952706248949, 45.931281401070677 ] } },
{ "type": "Feature", "properties": { "OBJEKTART": "LFP1", "TITEL": "NULL", "PUNKTNAME": "Montendre", "LV95E": 2513517.33, "LV95N": 1161011.89, "LK25": "1221", "LFPNR": "12218400", "NOWAY": 1, "SECTOR": 1, "ZYKLUS": 2017 }, "geometry": { "type": "Point", "coordinates": [ 6.310042729970192, 46.594760704039366 ] } },
{ "type": "Feature", "properties": { "OBJEKTART": "LFP1", "TITEL": "NULL", "PUNKTNAME": "Montoz PC", "LV95E": 2587540.1, "LV95N": 1229589.75, "LK25": "1126", "LFPNR": "11261020", "NOWAY": 0, "SECTOR": 1, "ZYKLUS": 2017 }, "geometry": { "type": "Point", "coordinates": [ 7.274137685599881, 47.21712155761147 ] } },
{ "type": "Feature", "properties": { "OBJEKTART": "LFP1", "TITEL": "NULL", "PUNKTNAME": "Montoz SW", "LV95E": 2586234.745, "LV95N": 1228917.356, "LK25": "1126", "LFPNR": "11260040", "NOWAY": 1, "SECTOR": 1, "ZYKLUS": 2017 }, "geometry": { "type": "Point", "coordinates": [ 7.256925717310488, 47.211047549274554 ] } },
{ "type": "Feature", "properties": { "OBJEKTART": "LFP1", "TITEL": "NULL", "PUNKTNAME": "Mont-Pèlerin", "LV95E": 2552050.638, "LV95N": 1149556.803, "LK25": "1244", "LFPNR": "12441410", "NOWAY": 0, "SECTOR": 1, "ZYKLUS": 2011 }, "geometry": { "type": "Point", "coordinates": [ 6.8140638466809, 46.495600999228152 ] } },
{ "type": "Feature", "properties": { "OBJEKTART": "LFP1", "TITEL": "NULL", "PUNKTNAME": "Mormont", "LV95E": 2531066.137, "LV95N": 1167713.803, "LK25": "1222", "LFPNR": "12228060", "NOWAY": 1, "SECTOR": 1, "ZYKLUS": 2011 }, "geometry": { "type": "Point", "coordinates": [ 6.538025740689196, 46.657087735384508 ] } },
{ "type": "Feature", "properties": { "OBJEKTART": "LFP1", "TITEL": "NULL", "PUNKTNAME": "Moron", "LV95E": 2586735.29, "LV95N": 1234630.359, "LK25": "1106", "LFPNR": "11060310", "NOWAY": 0, "SECTOR": 1, "ZYKLUS": 2017 }, "geometry": { "type": "Point", "coordinates": [ 7.263363410687668, 47.262443951823755 ] } },
{ "type": "Feature", "properties": { "OBJEKTART": "LFP1", "TITEL": "NULL", "PUNKTNAME": "Mossel", "LV95E": 2554942.715, "LV95N": 1162157.94, "LK25": "1224", "LFPNR": "12242310", "NOWAY": 0, "SECTOR": 1, "ZYKLUS": 2011 }, "geometry": { "type": "Point", "coordinates": [ 6.85050061898643, 46.609153681482809 ] } },
{ "type": "Feature", "properties": { "OBJEKTART": "LFP1", "TITEL": "NULL", "PUNKTNAME": "Moudon", "LV95E": 2548674.28, "LV95N": 1169048.09, "LK25": "1223", "LFPNR": "12238030", "NOWAY": 0, "SECTOR": 1, "ZYKLUS": 2011 }, "geometry": { "type": "Point", "coordinates": [ 6.767911310554259, 46.670678870326242 ] } },
{ "type": "Feature", "properties": { "OBJEKTART": "LFP1", "TITEL": "NULL", "PUNKTNAME": "Napf-Nord", "LV95E": 2638093.501, "LV95N": 1206075.978, "LK25": "1149", "LFPNR": "11490430", "NOWAY": 0, "SECTOR": 2, "ZYKLUS": 2018 }, "geometry": { "type": "Point", "coordinates": [ 7.939535435127508, 47.004646546663821 ] } },
{ "type": "Feature", "properties": { "OBJEKTART": "LFP1", "TITEL": "NULL", "PUNKTNAME": "Napf-Süd", "LV95E": 2638130.87, "LV95N": 1205962.23, "LK25": "1169", "LFPNR": "11690010", "NOWAY": 1, "SECTOR": 2, "ZYKLUS": 2018 }, "geometry": { "type": "Point", "coordinates": [ 7.940017252370899, 47.003621250143922 ] } },
{ "type": "Feature", "properties": { "OBJEKTART": "LFP1", "TITEL": "NULL", "PUNKTNAME": "Napf-Süd Exz", "LV95E": 2638138.82, "LV95N": 1205960.33, "LK25": "1169", "LFPNR": "11690016", "NOWAY": 1, "SECTOR": 2, "ZYKLUS": 2018 }, "geometry": { "type": "Point", "coordinates": [ 7.94012162520617, 47.003603703344588 ] } },
{ "type": "Feature", "properties": { "OBJEKTART": "LFP1", "TITEL": "NULL", "PUNKTNAME": "Naters", "LV95E": 2625203.41, "LV95N": 1187673.42, "LK25": "1188", "LFPNR": "11882240", "NOWAY": 0, "SECTOR": 2, "ZYKLUS": 2018 }, "geometry": { "type": "Point", "coordinates": [ 7.769025124496304, 46.839727114604059 ] } },
{ "type": "Feature", "properties": { "OBJEKTART": "LFP1", "TITEL": "NULL", "PUNKTNAME": "Naters", "LV95E": 2625203.41, "LV95N": 1187673.42, "LK25": "1188", "LFPNR": "11882247", "NOWAY": 0, "SECTOR": 2, "ZYKLUS": 2018 }, "geometry": { "type": "Point", "coordinates": [ 7.769025124496304, 46.839727114604059 ] } },
{ "type": "Feature", "properties": { "OBJEKTART": "LFP1", "TITEL": "NULL", "PUNKTNAME": "Neuve", "LV95E": 2506627.01, "LV95N": 1153187.17, "LK25": "1241", "LFPNR": "12414177", "NOWAY": 1, "SECTOR": 1, "ZYKLUS": 2011 }, "geometry": { "type": "Point", "coordinates": [ 6.221724195320263, 46.523452817903845 ] } },
{ "type": "Feature", "properties": { "OBJEKTART": "LFP1", "TITEL": "NULL", "PUNKTNAME": "Neuve", "LV95E": 2506626.59, "LV95N": 1153188.36, "LK25": "1241", "LFPNR": "12414170", "NOWAY": 1, "SECTOR": 1, "ZYKLUS": 2011 }, "geometry": { "type": "Point", "coordinates": [ 6.221718481516344, 46.523463462694146 ] } },
{ "type": "Feature", "properties": { "OBJEKTART": "LFP1", "TITEL": "NULL", "PUNKTNAME": "Niedergebisbach", "LV95E": 2642428.65, "LV95N": 1277283.91, "LK25": "1049", "LFPNR": "10492110", "NOWAY": 0, "SECTOR": 2, "ZYKLUS": 2018 }, "geometry": { "type": "Point", "coordinates": [ 8.00326973242478, 47.644836118196665 ] } },
{ "type": "Feature", "properties": { "OBJEKTART": "LFP1", "TITEL": "NULL", "PUNKTNAME": "Niesen", "LV95E": 2616367.21, "LV95N": 1166132.46, "LK25": "1227", "LFPNR": "12277210", "NOWAY": 1, "SECTOR": 4, "ZYKLUS": 2009 }, "geometry": { "type": "Point", "coordinates": [ 7.652425770303154, 46.646232772901222 ] } },
{ "type": "Feature", "properties": { "OBJEKTART": "LFP1", "TITEL": "NULL", "PUNKTNAME": "Niesen Süd", "LV95E": 2616333.369, "LV95N": 1166057.619, "LK25": "1227", "LFPNR": "12277211", "NOWAY": 1, "SECTOR": 4, "ZYKLUS": 2009 }, "geometry": { "type": "Point", "coordinates": [ 7.651981093968388, 46.645560366824824 ] } },
{ "type": "Feature", "properties": { "OBJEKTART": "LFP1", "TITEL": "NULL", "PUNKTNAME": "Nollen A", "LV95E": 2726887.511, "LV95N": 1261678.385, "LK25": "1074", "LFPNR": "10740220", "NOWAY": 0, "SECTOR": 3, "ZYKLUS": 2019 }, "geometry": { "type": "Point", "coordinates": [ 9.122577488988718, 47.493612732244841 ] } },
{ "type": "Feature", "properties": { "OBJEKTART": "LFP1", "TITEL": "NULL", "PUNKTNAME": "Nollen B", "LV95E": 2726919.099, "LV95N": 1261587.068, "LK25": "1074", "LFPNR": "10740221", "NOWAY": 0, "SECTOR": 3, "ZYKLUS": 2019 }, "geometry": { "type": "Point", "coordinates": [ 9.122970555914657, 47.492785526886394 ] } },
{ "type": "Feature", "properties": { "OBJEKTART": "LFP1", "TITEL": "NULL", "PUNKTNAME": "Nyon", "LV95E": 2508133.004, "LV95N": 1138347.239, "LK25": "1261", "LFPNR": "12615340", "NOWAY": 0, "SECTOR": 1, "ZYKLUS": 2012 }, "geometry": { "type": "Point", "coordinates": [ 6.244296850279323, 46.390182692147683 ] } },
{ "type": "Feature", "properties": { "OBJEKTART": "LFP1", "TITEL": "NULL", "PUNKTNAME": "Ottenberg", "LV95E": 2727434.342, "LV95N": 1271699.337, "LK25": "1054", "LFPNR": "10541300", "NOWAY": 0, "SECTOR": 3, "ZYKLUS": 2019 }, "geometry": { "type": "Point", "coordinates": [ 9.132703799808485, 47.583611973060833 ] } },
{ "type": "Feature", "properties": { "OBJEKTART": "LFP1", "TITEL": "NULL", "PUNKTNAME": "Ouchy", "LV95E": 2537680.826, "LV95N": 1150797.6, "LK25": "1243", "LFPNR": "12432540", "NOWAY": 0, "SECTOR": 1, "ZYKLUS": 2013 }, "geometry": { "type": "Point", "coordinates": [ 6.626730499305803, 46.505576519192765 ] } },
{ "type": "Feature", "properties": { "OBJEKTART": "LFP1", "TITEL": "NULL", "PUNKTNAME": "Pfänder", "LV95E": 2776376.53, "LV95N": 1264478.21, "LK25": "1076", "LFPNR": "10768010", "NOWAY": 0, "SECTOR": 3, "ZYKLUS": 2013 }, "geometry": { "type": "Point", "coordinates": [ 9.78013047646656, 47.507366767819128 ] } },
{ "type": "Feature", "properties": { "OBJEKTART": "LFP1", "TITEL": "NULL", "PUNKTNAME": "Pfannenstiel", "LV95E": 2693648.319, "LV95N": 1238274.95, "LK25": "1112", "LFPNR": "11121170", "NOWAY": 0, "SECTOR": 3, "ZYKLUS": 2013 }, "geometry": { "type": "Point", "coordinates": [ 8.676638887552119, 47.288720017295844 ] } },
{ "type": "Feature", "properties": { "OBJEKTART": "LFP1", "TITEL": "NULL", "PUNKTNAME": "Pilatus", "LV95E": 2662203.8, "LV95N": 1203445.16, "LK25": "1170", "LFPNR": "11703090", "NOWAY": 1, "SECTOR": 2, "ZYKLUS": 2018 }, "geometry": { "type": "Point", "coordinates": [ 8.256190917095575, 46.979161979694453 ] } },
{ "type": "Feature", "properties": { "OBJEKTART": "LFP1", "TITEL": "NULL", "PUNKTNAME": "Piton", "LV95E": 2499511.72, "LV95N": 1105673.251, "LK25": "1301", "LFPNR": "13011960", "NOWAY": 0, "SECTOR": 1, "ZYKLUS": 2012 }, "geometry": { "type": "Point", "coordinates": [ 6.139277519858535, 46.095063306642977 ] } },
{ "type": "Feature", "properties": { "OBJEKTART": "LFP1", "TITEL": "NULL", "PUNKTNAME": "Piton", "LV95E": 2499518.52, "LV95N": 1105669.13, "LK25": "1301", "LFPNR": "13011961", "NOWAY": 0, "SECTOR": 1, "ZYKLUS": 2012 }, "geometry": { "type": "Point", "coordinates": [ 6.139366315318756, 46.095027255613154 ] } },
{ "type": "Feature", "properties": { "OBJEKTART": "LFP1", "TITEL": "NULL", "PUNKTNAME": "Pléiades E", "LV95E": 2559341.481, "LV95N": 1147999.002, "LK25": "1244", "LFPNR": "12444580", "NOWAY": 0, "SECTOR": 1, "ZYKLUS": 2017 }, "geometry": { "type": "Point", "coordinates": [ 6.909166693047431, 46.482071492404224 ] } },
{ "type": "Feature", "properties": { "OBJEKTART": "LFP1", "TITEL": "NULL", "PUNKTNAME": "Portalban", "LV95E": 2563065.104, "LV95N": 1196137.661, "LK25": "1164", "LFPNR": "11646139", "NOWAY": 0, "SECTOR": 1, "ZYKLUS": 2017 }, "geometry": { "type": "Point", "coordinates": [ 6.953771795412866, 46.915308923992079 ] } },
{ "type": "Feature", "properties": { "OBJEKTART": "LFP1", "TITEL": "NULL", "PUNKTNAME": "Pouillerel", "LV95E": 2551542.73, "LV95N": 1217758.43, "LK25": "1144", "LFPNR": "11440010", "NOWAY": 0, "SECTOR": 1, "ZYKLUS": 2017 }, "geometry": { "type": "Point", "coordinates": [ 6.800203674785791, 47.109040522165081 ] } },
{ "type": "Feature", "properties": { "OBJEKTART": "LFP1", "TITEL": "NULL", "PUNKTNAME": "Rämel", "LV95E": 2598601.43, "LV95N": 1254945.4, "LK25": "1066", "LFPNR": "10666022", "NOWAY": 1, "SECTOR": 1, "ZYKLUS": 2017 }, "geometry": { "type": "Point", "coordinates": [ 7.420081063965905, 47.445296945095073 ] } },
{ "type": "Feature", "properties": { "OBJEKTART": "LFP1", "TITEL": "NULL", "PUNKTNAME": "Rämel", "LV95E": 2598602.93, "LV95N": 1254945.1, "LK25": "1066", "LFPNR": "10666027", "NOWAY": 1, "SECTOR": 1, "ZYKLUS": 2017 }, "geometry": { "type": "Point", "coordinates": [ 7.420100952216404, 47.445294250232649 ] } },
{ "type": "Feature", "properties": { "OBJEKTART": "LFP1", "TITEL": "NULL", "PUNKTNAME": "Rötifluh", "LV95E": 2606771.56, "LV95N": 1234110.34, "LK25": "1107", "LFPNR": "11072350", "NOWAY": 1, "SECTOR": 1, "ZYKLUS": 2017 }, "geometry": { "type": "Point", "coordinates": [ 7.528090222565501, 47.257867428025762 ] } },
{ "type": "Feature", "properties": { "OBJEKTART": "LFP1", "TITEL": "NULL", "PUNKTNAME": "Racine", "LV95E": 2552675.84, "LV95N": 1208056.14, "LK25": "1144", "LFPNR": "11441330", "NOWAY": 1, "SECTOR": 1, "ZYKLUS": 2017 }, "geometry": { "type": "Point", "coordinates": [ 6.816148214401289, 47.021853610919266 ] } },
{ "type": "Feature", "properties": { "OBJEKTART": "LFP1", "TITEL": "NULL", "PUNKTNAME": "Raimeux tour", "LV95E": 2599251.58, "LV95N": 1239585.547, "LK25": "1106", "LFPNR": "11067176", "NOWAY": 0, "SECTOR": 1, "ZYKLUS": 2017 }, "geometry": { "type": "Point", "coordinates": [ 7.428729077034843, 47.307147670664783 ] } },
{ "type": "Feature", "properties": { "OBJEKTART": "LFP1", "TITEL": "NULL", "PUNKTNAME": "Raimeux tour Rab", "LV95E": 2599251.58, "LV95N": 1239585.547, "LK25": "1106", "LFPNR": "11067172", "NOWAY": 0, "SECTOR": 1, "ZYKLUS": 2017 }, "geometry": { "type": "Point", "coordinates": [ 7.428729077034843, 47.307147670664783 ] } },
{ "type": "Feature", "properties": { "OBJEKTART": "LFP1", "TITEL": "NULL", "PUNKTNAME": "Recketschwand", "LV95E": 2654555.548, "LV95N": 1216030.888, "LK25": "1149", "LFPNR": "11498090", "NOWAY": 0, "SECTOR": 2, "ZYKLUS": 2018 }, "geometry": { "type": "Point", "coordinates": [ 8.157188120049053, 47.09303863672158 ] } },
{ "type": "Feature", "properties": { "OBJEKTART": "LFP1", "TITEL": "NULL", "PUNKTNAME": "Rigi", "LV95E": 2679520.71, "LV95N": 1212273.25, "LK25": "1151", "LFPNR": "11513182", "NOWAY": 0, "SECTOR": 3, "ZYKLUS": 2011 }, "geometry": { "type": "Point", "coordinates": [ 8.485314552237021, 47.056715746005572 ] } },
{ "type": "Feature", "properties": { "OBJEKTART": "LFP1", "TITEL": "NULL", "PUNKTNAME": "Roc de Courroux", "LV95E": 2596116.89, "LV95N": 1247679.803, "LK25": "1086", "LFPNR": "10865260", "NOWAY": 0, "SECTOR": 1, "ZYKLUS": 2017 }, "geometry": { "type": "Point", "coordinates": [ 7.387204969348997, 47.379938808471628 ] } },
{ "type": "Feature", "properties": { "OBJEKTART": "LFP1", "TITEL": "NULL", "PUNKTNAME": "Rochers de Naye", "LV95E": 2564660.698, "LV95N": 1142331.791, "LK25": "1264", "LFPNR": "12647231", "NOWAY": 1, "SECTOR": 1, "ZYKLUS": 2013 }, "geometry": { "type": "Point", "coordinates": [ 6.978867946578409, 46.431394893998885 ] } },
{ "type": "Feature", "properties": { "OBJEKTART": "LFP1", "TITEL": "NULL", "PUNKTNAME": "Rochers de Naye", "LV95E": 2564443.72, "LV95N": 1142379.68, "LK25": "1264", "LFPNR": "12647230", "NOWAY": 1, "SECTOR": 1, "ZYKLUS": 2013 }, "geometry": { "type": "Point", "coordinates": [ 6.976041387848317, 46.431814172942111 ] } },
{ "type": "Feature", "properties": { "OBJEKTART": "LFP1", "TITEL": "NULL", "PUNKTNAME": "Roggenfluh", "LV95E": 2621509.352, "LV95N": 1239478.96, "LK25": "1108", "LFPNR": "11080152", "NOWAY": 1, "SECTOR": 2, "ZYKLUS": 2018 }, "geometry": { "type": "Point", "coordinates": [ 7.723055670359425, 47.305840932060143 ] } },
{ "type": "Feature", "properties": { "OBJEKTART": "LFP1", "TITEL": "NULL", "PUNKTNAME": "Romanshorn", "LV95E": 2745287.557, "LV95N": 1270027.653, "LK25": "1055", "LFPNR": "10551109", "NOWAY": 0, "SECTOR": 3, "ZYKLUS": 2019 }, "geometry": { "type": "Point", "coordinates": [ 9.369403055436102, 47.564872054024427 ] } },
{ "type": "Feature", "properties": { "OBJEKTART": "LFP1", "TITEL": "NULL", "PUNKTNAME": "Romanshorn", "LV95E": 2745233.617, "LV95N": 1270065.733, "LK25": "1055", "LFPNR": "10551100", "NOWAY": 0, "SECTOR": 3, "ZYKLUS": 2019 }, "geometry": { "type": "Point", "coordinates": [ 9.368698965573326, 47.565226366108291 ] } },
{ "type": "Feature", "properties": { "OBJEKTART": "LFP1", "TITEL": "NULL", "PUNKTNAME": "Rossbüchel", "LV95E": 2755675.14, "LV95N": 1257913.69, "LK25": "1075", "LFPNR": "10756240", "NOWAY": 0, "SECTOR": 3, "ZYKLUS": 2013 }, "geometry": { "type": "Point", "coordinates": [ 9.503149624156304, 47.453577395592276 ] } },
{ "type": "Feature", "properties": { "OBJEKTART": "LFP1", "TITEL": "NULL", "PUNKTNAME": "Rothorn Brienz", "LV95E": 2646445.338, "LV95N": 1181949.792, "LK25": "1209", "LFPNR": "12094018", "NOWAY": 1, "SECTOR": 4, "ZYKLUS": 2014 }, "geometry": { "type": "Point", "coordinates": [ 8.046895161298961, 46.787100341716751 ] } },
{ "type": "Feature", "properties": { "OBJEKTART": "LFP1", "TITEL": "NULL", "PUNKTNAME": "Rothorn Brienz", "LV95E": 2646448.98, "LV95N": 1181951.38, "LK25": "1209", "LFPNR": "12094010", "NOWAY": 1, "SECTOR": 4, "ZYKLUS": 2014 }, "geometry": { "type": "Point", "coordinates": [ 8.046943017048594, 46.787114372197536 ] } },
{ "type": "Feature", "properties": { "OBJEKTART": "LFP1", "TITEL": "NULL", "PUNKTNAME": "Sälischlössli", "LV95E": 2636313.639, "LV95N": 1242775.711, "LK25": "1088", "LFPNR": "10888436", "NOWAY": 0, "SECTOR": 2, "ZYKLUS": 2018 }, "geometry": { "type": "Point", "coordinates": [ 7.919083355922431, 47.334845016866282 ] } },
{ "type": "Feature", "properties": { "OBJEKTART": "LFP1", "TITEL": "NULL", "PUNKTNAME": "Sälischlössli", "LV95E": 2636314.149, "LV95N": 1242776.921, "LK25": "1088", "LFPNR": "10888437", "NOWAY": 0, "SECTOR": 2, "ZYKLUS": 2018 }, "geometry": { "type": "Point", "coordinates": [ 7.919090201362899, 47.334855871791163 ] } },
{ "type": "Feature", "properties": { "OBJEKTART": "LFP1", "TITEL": "NULL", "PUNKTNAME": "Säntis", "LV95E": 2744169.78, "LV95N": 1234918.22, "LK25": "1115", "LFPNR": "11151360", "NOWAY": 1, "SECTOR": 3, "ZYKLUS": 2008 }, "geometry": { "type": "Point", "coordinates": [ 9.343228536660314, 47.249432954761701 ] } },
{ "type": "Feature", "properties": { "OBJEKTART": "LFP1", "TITEL": "NULL", "PUNKTNAME": "Schauenberg", "LV95E": 2707663.4, "LV95N": 1257567.94, "LK25": "1073", "LFPNR": "10730310", "NOWAY": 0, "SECTOR": 2, "ZYKLUS": 2010 }, "geometry": { "type": "Point", "coordinates": [ 8.866518604426265, 47.460079654455782 ] } },
{ "type": "Feature", "properties": { "OBJEKTART": "LFP1", "TITEL": "NULL", "PUNKTNAME": "Schauenburg", "LV95E": 2618381.823, "LV95N": 1261123.291, "LK25": "1067", "LFPNR": "10678282", "NOWAY": 0, "SECTOR": 2, "ZYKLUS": 2010 }, "geometry": { "type": "Point", "coordinates": [ 7.682586072366646, 47.500607216498992 ] } },
{ "type": "Feature", "properties": { "OBJEKTART": "LFP1", "TITEL": "NULL", "PUNKTNAME": "Schwerzlen", "LV95E": 2670389.366, "LV95N": 1220855.654, "LK25": "1130", "LFPNR": "11307310", "NOWAY": 0, "SECTOR": 2, "ZYKLUS": 2018 }, "geometry": { "type": "Point", "coordinates": [ 8.366471384751796, 47.134940863707691 ] } },
{ "type": "Feature", "properties": { "OBJEKTART": "LFP1", "TITEL": "NULL", "PUNKTNAME": "Simplon-Axpunkt Nord", "LV95E": 2643592.01, "LV95N": 1130748.261, "LK25": "1289", "LFPNR": "12893167", "NOWAY": 0, "SECTOR": 4, "ZYKLUS": 2020 }, "geometry": { "type": "Point", "coordinates": [ 8.00469536408975, 46.326718742146255 ] } },
{ "type": "Feature", "properties": { "OBJEKTART": "LFP1", "TITEL": "NULL", "PUNKTNAME": "Simplon-Axpunkt Nord", "LV95E": 2643578.96, "LV95N": 1130751.84, "LK25": "1289", "LFPNR": "12893160", "NOWAY": 0, "SECTOR": 4, "ZYKLUS": 2020 }, "geometry": { "type": "Point", "coordinates": [ 8.00452624762203, 46.326751782726021 ] } },
{ "type": "Feature", "properties": { "OBJEKTART": "LFP1", "TITEL": "NULL", "PUNKTNAME": "Simplon-Axpunkt Süd", "LV95E": 2658717.432, "LV95N": 1117592.605, "LK25": "1310", "LFPNR": "13108040", "NOWAY": 0, "SECTOR": 4, "ZYKLUS": 2020 }, "geometry": { "type": "Point", "coordinates": [ 8.199436021976954, 46.207229914004913 ] } },
{ "type": "Feature", "properties": { "OBJEKTART": "LFP1", "TITEL": "NULL", "PUNKTNAME": "Sissachfluh", "LV95E": 2628522.589, "LV95N": 1258873.46, "LK25": "1068", "LFPNR": "10684447", "NOWAY": 0, "SECTOR": 2, "ZYKLUS": 2018 }, "geometry": { "type": "Point", "coordinates": [ 7.817028840625123, 47.480011670101433 ] } },
{ "type": "Feature", "properties": { "OBJEKTART": "LFP1", "TITEL": "NULL", "PUNKTNAME": "Sissachfluh", "LV95E": 2628519.798, "LV95N": 1258876.175, "LK25": "1068", "LFPNR": "10684441", "NOWAY": 0, "SECTOR": 2, "ZYKLUS": 2018 }, "geometry": { "type": "Point", "coordinates": [ 7.816991986710164, 47.480036209252454 ] } },
{ "type": "Feature", "properties": { "OBJEKTART": "LFP1", "TITEL": "NULL", "PUNKTNAME": "Sissachfluh", "LV95E": 2628537.029, "LV95N": 1258877.08, "LK25": "1068", "LFPNR": "10684440", "NOWAY": 0, "SECTOR": 2, "ZYKLUS": 2018 }, "geometry": { "type": "Point", "coordinates": [ 7.81722064280977, 47.480043602449427 ] } },
{ "type": "Feature", "properties": { "OBJEKTART": "LFP1", "TITEL": "NULL", "PUNKTNAME": "Sissachfluh", "LV95E": 2628526.977, "LV95N": 1258868.164, "LK25": "1068", "LFPNR": "10684445", "NOWAY": 0, "SECTOR": 2, "ZYKLUS": 2018 }, "geometry": { "type": "Point", "coordinates": [ 7.817086716511405, 47.479963848647898 ] } },
{ "type": "Feature", "properties": { "OBJEKTART": "LFP1", "TITEL": "NULL", "PUNKTNAME": "Sonnenberg bei Möhlin", "LV95E": 2630739.408, "LV95N": 1264750.091, "LK25": "1068", "LFPNR": "10685062", "NOWAY": 0, "SECTOR": 2, "ZYKLUS": 2018 }, "geometry": { "type": "Point", "coordinates": [ 7.846843602405496, 47.532764921193198 ] } },
{ "type": "Feature", "properties": { "OBJEKTART": "LFP1", "TITEL": "NULL", "PUNKTNAME": "Sonnenberg bei Möhlin", "LV95E": 2630709.878, "LV95N": 1264738.761, "LK25": "1068", "LFPNR": "10685066", "NOWAY": 0, "SECTOR": 2, "ZYKLUS": 2018 }, "geometry": { "type": "Point", "coordinates": [ 7.846450668016868, 47.532664401825272 ] } },
{ "type": "Feature", "properties": { "OBJEKTART": "LFP1", "TITEL": "NULL", "PUNKTNAME": "Sonnenberg bei Möhlin", "LV95E": 2630709.438, "LV95N": 1264738.011, "LK25": "1068", "LFPNR": "10685069", "NOWAY": 0, "SECTOR": 2, "ZYKLUS": 2018 }, "geometry": { "type": "Point", "coordinates": [ 7.846444773213006, 47.532657677107025 ] } },
{ "type": "Feature", "properties": { "OBJEKTART": "LFP1", "TITEL": "NULL", "PUNKTNAME": "Stöckerli", "LV95E": 2704763.53, "LV95N": 1224033.66, "LK25": "1132", "LFPNR": "11327200", "NOWAY": 0, "SECTOR": 3, "ZYKLUS": 2013 }, "geometry": { "type": "Point", "coordinates": [ 8.820236052665544, 47.158973723675125 ] } },
{ "type": "Feature", "properties": { "OBJEKTART": "LFP1", "TITEL": "NULL", "PUNKTNAME": "Stöckerli", "LV95E": 2704763.52, "LV95N": 1224033.69, "LK25": "1132", "LFPNR": "11327207", "NOWAY": 0, "SECTOR": 3, "ZYKLUS": 2013 }, "geometry": { "type": "Point", "coordinates": [ 8.820235927780214, 47.15897399506057 ] } },
{ "type": "Feature", "properties": { "OBJEKTART": "LFP1", "TITEL": "NULL", "PUNKTNAME": "Stammheim Nord", "LV95E": 2702212.19, "LV95N": 1278881.405, "LK25": "1032", "LFPNR": "10326460", "NOWAY": 1, "SECTOR": 3, "ZYKLUS": 2013 }, "geometry": { "type": "Point", "coordinates": [ 8.799137564126781, 47.652607546043726 ] } },
{ "type": "Feature", "properties": { "OBJEKTART": "LFP1", "TITEL": "NULL", "PUNKTNAME": "Steinhof", "LV95E": 2618779.612, "LV95N": 1223305.797, "LK25": "1127", "LFPNR": "11278248", "NOWAY": 0, "SECTOR": 2, "ZYKLUS": 2018 }, "geometry": { "type": "Point", "coordinates": [ 7.686286178053265, 47.160453375360973 ] } },
{ "type": "Feature", "properties": { "OBJEKTART": "LFP1", "TITEL": "NULL", "PUNKTNAME": "Steinhof BP A", "LV95E": 2618501.505, "LV95N": 1222865.708, "LK25": "1127", "LFPNR": "11278242", "NOWAY": 0, "SECTOR": 2, "ZYKLUS": 2018 }, "geometry": { "type": "Point", "coordinates": [ 7.682600656633898, 47.156502700494137 ] } },
{ "type": "Feature", "properties": { "OBJEKTART": "LFP1", "TITEL": "NULL", "PUNKTNAME": "Steinhof BP B", "LV95E": 2618813.589, "LV95N": 1223171.894, "LK25": "1127", "LFPNR": "11278241", "NOWAY": 0, "SECTOR": 2, "ZYKLUS": 2018 }, "geometry": { "type": "Point", "coordinates": [ 7.686728682877518, 47.159247990333512 ] } },
{ "type": "Feature", "properties": { "OBJEKTART": "LFP1", "TITEL": "NULL", "PUNKTNAME": "Suchet", "LV95E": 2525730.89, "LV95N": 1180594.34, "LK25": "1202", "LFPNR": "12025050", "NOWAY": 0, "SECTOR": 1, "ZYKLUS": 2011 }, "geometry": { "type": "Point", "coordinates": [ 6.466239294073164, 46.772372094245625 ] } },
{ "type": "Feature", "properties": { "OBJEKTART": "LFP1", "TITEL": "NULL", "PUNKTNAME": "Sugiez", "LV95E": 2576532.136, "LV95N": 1201303.167, "LK25": "1165", "LFPNR": "11654213", "NOWAY": 0, "SECTOR": 1, "ZYKLUS": 2011 }, "geometry": { "type": "Point", "coordinates": [ 7.130289813714278, 46.962387308413732 ] } },
{ "type": "Feature", "properties": { "OBJEKTART": "LFP1", "TITEL": "NULL", "PUNKTNAME": "Sugiez", "LV95E": 2576532.446, "LV95N": 1201303.837, "LK25": "1165", "LFPNR": "11654210", "NOWAY": 0, "SECTOR": 1, "ZYKLUS": 2011 }, "geometry": { "type": "Point", "coordinates": [ 7.130293852010555, 46.962393346119782 ] } },
{ "type": "Feature", "properties": { "OBJEKTART": "LFP1", "TITEL": "NULL", "PUNKTNAME": "Tour de Gourze", "LV95E": 2546432.89, "LV95N": 1151315.49, "LK25": "1243", "LFPNR": "12437320", "NOWAY": 0, "SECTOR": 1, "ZYKLUS": 2011 }, "geometry": { "type": "Point", "coordinates": [ 6.740687908015574, 46.510994060541137 ] } },
{ "type": "Feature", "properties": { "OBJEKTART": "LFP1", "TITEL": "NULL", "PUNKTNAME": "Tourbillon", "LV95E": 2594614.742, "LV95N": 1120601.665, "LK25": "1306", "LFPNR": "13064060", "NOWAY": 1, "SECTOR": 4, "ZYKLUS": 2020 }, "geometry": { "type": "Point", "coordinates": [ 7.36883219081254, 46.236832748870867 ] } },
{ "type": "Feature", "properties": { "OBJEKTART": "LFP1", "TITEL": "NULL", "PUNKTNAME": "Uto", "LV95E": 2679596.084, "LV95N": 1244828.697, "LK25": "1091", "LFPNR": "10913740", "NOWAY": 0, "SECTOR": 3, "ZYKLUS": 2013 }, "geometry": { "type": "Point", "coordinates": [ 8.492058346314083, 47.349506170140785 ] } },
{ "type": "Feature", "properties": { "OBJEKTART": "LFP1", "TITEL": "NULL", "PUNKTNAME": "Vogelberg", "LV95E": 2618423.72, "LV95N": 1246417.629, "LK25": "1087", "LFPNR": "10878691", "NOWAY": 0, "SECTOR": 2, "ZYKLUS": 2018 }, "geometry": { "type": "Point", "coordinates": [ 7.682537324486669, 47.368342642085246 ] } },
{ "type": "Feature", "properties": { "OBJEKTART": "LFP1", "TITEL": "NULL", "PUNKTNAME": "Vully", "LV95E": 2573767.97, "LV95N": 1201490.591, "LK25": "1165", "LFPNR": "11653160", "NOWAY": 0, "SECTOR": 1, "ZYKLUS": 2011 }, "geometry": { "type": "Point", "coordinates": [ 7.093961246911597, 46.963969354102929 ] } },
{ "type": "Feature", "properties": { "OBJEKTART": "LFP1", "TITEL": "NULL", "PUNKTNAME": "Walperswil Pfeiler", "LV95E": 2584442.111, "LV95N": 1211687.878, "LK25": "1145", "LFPNR": "11458211", "NOWAY": 0, "SECTOR": 1, "ZYKLUS": 2017 }, "geometry": { "type": "Point", "coordinates": [ 7.233859730130927, 47.056031759558529 ] } },
{ "type": "Feature", "properties": { "OBJEKTART": "LFP1", "TITEL": "NULL", "PUNKTNAME": "Walperswil Pyramide", "LV95E": 2584442.112, "LV95N": 1211687.872, "LK25": "1145", "LFPNR": "11458217", "NOWAY": 0, "SECTOR": 1, "ZYKLUS": 2017 }, "geometry": { "type": "Point", "coordinates": [ 7.233859743499949, 47.056031705612391 ] } },
{ "type": "Feature", "properties": { "OBJEKTART": "LFP1", "TITEL": "NULL", "PUNKTNAME": "Walperswil Stein", "LV95E": 2584442.642, "LV95N": 1211688.292, "LK25": "1145", "LFPNR": "11458210", "NOWAY": 0, "SECTOR": 1, "ZYKLUS": 2017 }, "geometry": { "type": "Point", "coordinates": [ 7.2338667047513, 47.056035496004654 ] } },
{ "type": "Feature", "properties": { "OBJEKTART": "LFP1", "TITEL": "NULL", "PUNKTNAME": "Winterthur", "LV95E": 2698330.13, "LV95N": 1262318.106, "LK25": "1072", "LFPNR": "10724190", "NOWAY": 0, "SECTOR": 3, "ZYKLUS": 2019 }, "geometry": { "type": "Point", "coordinates": [ 8.743807159446199, 47.504257885219076 ] } },
{ "type": "Feature", "properties": { "OBJEKTART": "LFP1", "TITEL": "NULL", "PUNKTNAME": "Winterthur", "LV95E": 2698319.364, "LV95N": 1262313.98, "LK25": "1072", "LFPNR": "10724191", "NOWAY": 0, "SECTOR": 3, "ZYKLUS": 2019 }, "geometry": { "type": "Point", "coordinates": [ 8.7436633725854, 47.504222392190748 ] } },
{ "type": "Feature", "properties": { "OBJEKTART": "LFP1", "TITEL": "NULL", "PUNKTNAME": "Wisenberg", "LV95E": 2633445.683, "LV95N": 1250273.632, "LK25": "1088", "LFPNR": "10886276", "NOWAY": 0, "SECTOR": 2, "ZYKLUS": 2018 }, "geometry": { "type": "Point", "coordinates": [ 7.881698304089822, 47.402433828530803 ] } },
{ "type": "Feature", "properties": { "OBJEKTART": "LFP1", "TITEL": "NULL", "PUNKTNAME": "Wisenberg", "LV95E": 2633485.824, "LV95N": 1250268.842, "LK25": "1088", "LFPNR": "10886271", "NOWAY": 0, "SECTOR": 2, "ZYKLUS": 2018 }, "geometry": { "type": "Point", "coordinates": [ 7.882229705165274, 47.402388709965372 ] } },
{ "type": "Feature", "properties": { "OBJEKTART": "LFP1", "TITEL": "NULL", "PUNKTNAME": "Wisenberg", "LV95E": 2633459.003, "LV95N": 1250274.682, "LK25": "1088", "LFPNR": "10886270", "NOWAY": 0, "SECTOR": 2, "ZYKLUS": 2018 }, "geometry": { "type": "Point", "coordinates": [ 7.881874836422257, 47.402442596566125 ] } },
{ "type": "Feature", "properties": { "OBJEKTART": "LFP1", "TITEL": "NULL", "PUNKTNAME": "Wisenberg", "LV95E": 2633458.993, "LV95N": 1250274.692, "LK25": "1088", "LFPNR": "10886278", "NOWAY": 0, "SECTOR": 2, "ZYKLUS": 2018 }, "geometry": { "type": "Point", "coordinates": [ 7.88187470469669, 47.402442687013888 ] } },
{ "type": "Feature", "properties": { "OBJEKTART": "LFP1", "TITEL": "NULL", "PUNKTNAME": "Wisenberg", "LV95E": 2633443.993, "LV95N": 1250273.942, "LK25": "1088", "LFPNR": "10886277", "NOWAY": 0, "SECTOR": 2, "ZYKLUS": 2018 }, "geometry": { "type": "Point", "coordinates": [ 7.881675939331282, 47.402436702395221 ] } },
{ "type": "Feature", "properties": { "OBJEKTART": "LFP1", "TITEL": "NULL", "PUNKTNAME": "Yens", "LV95E": 2521209.447, "LV95N": 1153383.217, "LK25": "1242", "LFPNR": "12423220", "NOWAY": 0, "SECTOR": 1, "ZYKLUS": 2017 }, "geometry": { "type": "Point", "coordinates": [ 6.411717620496947, 46.527094809873276 ] } },
{ "type": "Feature", "properties": { "OBJEKTART": "LFP1", "TITEL": "NULL", "PUNKTNAME": "Zimmerwald Sternwarte", "LV95E": 2602062.3, "LV95N": 1191792.87, "LK25": "1186", "LFPNR": "11868070", "NOWAY": 0, "SECTOR": 4, "ZYKLUS": 2014 }, "geometry": { "type": "Point", "coordinates": [ 7.465687145472818, 46.87725479653291 ] } },
{ "type": "Feature", "properties": { "OBJEKTART": "LV95-Hauptpunkt", "TITEL": "NULL", "PUNKTNAME": "Alpnach", "LV95E": 2666857.43, "LV95N": 1200560.92, "LK25": "1170", "LFPNR": "11705000", "NOWAY": 0, "SECTOR": 2, "ZYKLUS": null }, "geometry": { "type": "Point", "coordinates": [ 8.316925556608075, 46.952767131751095 ] } },
{ "type": "Feature", "properties": { "OBJEKTART": "LV95-Hauptpunkt", "TITEL": "NULL", "PUNKTNAME": "Altdorf", "LV95E": 2691443.14, "LV95N": 1191517.95, "LK25": "1192", "LFPNR": "11920000", "NOWAY": 0, "SECTOR": 5, "ZYKLUS": null }, "geometry": { "type": "Point", "coordinates": [ 8.638044015592333, 46.868502956778485 ] } },
{ "type": "Feature", "properties": { "OBJEKTART": "LV95-Hauptpunkt", "TITEL": "NULL", "PUNKTNAME": "Andeer", "LV95E": 2752235.08, "LV95N": 1162014.53, "LK25": "1235", "LFPNR": "12355000", "NOWAY": 1, "SECTOR": 5, "ZYKLUS": null }, "geometry": { "type": "Point", "coordinates": [ 9.425346700391662, 46.592054088062639 ] } },
{ "type": "Feature", "properties": { "OBJEKTART": "LV95-Hauptpunkt", "TITEL": "NULL", "PUNKTNAME": "Ascona", "LV95E": 2703112.62, "LV95N": 1112936.82, "LK25": "1312", "LFPNR": "13126000", "NOWAY": 0, "SECTOR": 5, "ZYKLUS": null }, "geometry": { "type": "Point", "coordinates": [ 8.773543199093117, 46.160018941697224 ] } },
{ "type": "Feature", "properties": { "OBJEKTART": "LV95-Hauptpunkt", "TITEL": "NULL", "PUNKTNAME": "Bachtel", "LV95E": 2709468.74, "LV95N": 1237273.91, "LK25": "1113", "LFPNR": "11131000", "NOWAY": 0, "SECTOR": 3, "ZYKLUS": null }, "geometry": { "type": "Point", "coordinates": [ 8.885493661445855, 47.277282955437101 ] } },
{ "type": "Feature", "properties": { "OBJEKTART": "LV95-Hauptpunkt", "TITEL": "NULL", "PUNKTNAME": "Berninapass", "LV95E": 2799039.15, "LV95N": 1143214.9, "LK25": "1278", "LFPNR": "12782000", "NOWAY": 0, "SECTOR": 5, "ZYKLUS": null }, "geometry": { "type": "Point", "coordinates": [ 10.027666096116763, 46.410731987008226 ] } },
{ "type": "Feature", "properties": { "OBJEKTART": "LV95-Hauptpunkt", "TITEL": "NULL", "PUNKTNAME": "Biasca", "LV95E": 2718379.59, "LV95N": 1134684.81, "LK25": "1273", "LFPNR": "12735500", "NOWAY": 1, "SECTOR": 5, "ZYKLUS": null }, "geometry": { "type": "Point", "coordinates": [ 8.976661869781113, 46.353108515481168 ] } },
{ "type": "Feature", "properties": { "OBJEKTART": "LV95-Hauptpunkt", "TITEL": "NULL", "PUNKTNAME": "Bignasco", "LV95E": 2690329.53, "LV95N": 1132668.8, "LK25": "1292", "LFPNR": "12920000", "NOWAY": 1, "SECTOR": 5, "ZYKLUS": null }, "geometry": { "type": "Point", "coordinates": [ 8.611898850298198, 46.33933564284137 ] } },
{ "type": "Feature", "properties": { "OBJEKTART": "LV95-Hauptpunkt", "TITEL": "NULL", "PUNKTNAME": "Bonaduz", "LV95E": 2748956.34, "LV95N": 1186207.65, "LK25": "1195", "LFPNR": "11953000", "NOWAY": 0, "SECTOR": 5, "ZYKLUS": null }, "geometry": { "type": "Point", "coordinates": [ 9.390429789372201, 46.810354766516745 ] } },
{ "type": "Feature", "properties": { "OBJEKTART": "LV95-Hauptpunkt", "TITEL": "NULL", "PUNKTNAME": "Bossy", "LV95E": 2498496.53, "LV95N": 1126787.0, "LK25": "1281", "LFPNR": "12810000", "NOWAY": 0, "SECTOR": 1, "ZYKLUS": null }, "geometry": { "type": "Point", "coordinates": [ 6.121563652459563, 46.284814969658449 ] } },
{ "type": "Feature", "properties": { "OBJEKTART": "LV95-Hauptpunkt", "TITEL": "NULL", "PUNKTNAME": "Bourg-St-Pierre", "LV95E": 2582234.1, "LV95N": 1089695.81, "LK25": "1345", "LFPNR": "13457000", "NOWAY": 0, "SECTOR": 4, "ZYKLUS": null }, "geometry": { "type": "Point", "coordinates": [ 7.209510165669166, 45.958605425232761 ] } },
{ "type": "Feature", "properties": { "OBJEKTART": "LV95-Hauptpunkt", "TITEL": "NULL", "PUNKTNAME": "Brütten", "LV95E": 2693038.8, "LV95N": 1258953.11, "LK25": "1072", "LFPNR": "10721000", "NOWAY": 0, "SECTOR": 3, "ZYKLUS": null }, "geometry": { "type": "Point", "coordinates": [ 8.67288213393824, 47.474767433408829 ] } },
{ "type": "Feature", "properties": { "OBJEKTART": "LV95-Hauptpunkt", "TITEL": "NULL", "PUNKTNAME": "Brienz", "LV95E": 2648358.33, "LV95N": 1177994.06, "LK25": "1209", "LFPNR": "12095000", "NOWAY": 0, "SECTOR": 4, "ZYKLUS": null }, "geometry": { "type": "Point", "coordinates": [ 8.071529570912652, 46.751382007037193 ] } },
{ "type": "Feature", "properties": { "OBJEKTART": "LV95-Hauptpunkt", "TITEL": "NULL", "PUNKTNAME": "Brigels", "LV95E": 2725305.41, "LV95N": 1180977.57, "LK25": "1214", "LFPNR": "12140000", "NOWAY": 1, "SECTOR": 5, "ZYKLUS": null }, "geometry": { "type": "Point", "coordinates": [ 9.079194408752821, 46.768191012880983 ] } },
{ "type": "Feature", "properties": { "OBJEKTART": "LV95-Hauptpunkt", "TITEL": "NULL", "PUNKTNAME": "Buchberg", "LV95E": 2684033.55, "LV95N": 1270183.45, "LK25": "1051", "LFPNR": "10516000", "NOWAY": 0, "SECTOR": 3, "ZYKLUS": null }, "geometry": { "type": "Point", "coordinates": [ 8.555555366075016, 47.576973018696897 ] } },
{ "type": "Feature", "properties": { "OBJEKTART": "LV95-Hauptpunkt", "TITEL": "NULL", "PUNKTNAME": "Còlico", "LV95E": 2750344.32, "LV95N": 1112386.1, "LK25": "1314", "LFPNR": "13148000", "NOWAY": 1, "SECTOR": 5, "ZYKLUS": null }, "geometry": { "type": "Point", "coordinates": [ 9.384618453473868, 46.146181502162143 ] } },
{ "type": "Feature", "properties": { "OBJEKTART": "LV95-Hauptpunkt", "TITEL": "NULL", "PUNKTNAME": "Chailly", "LV95E": 2558235.14, "LV95N": 1144936.62, "LK25": "1264", "LFPNR": "12644000", "NOWAY": 1, "SECTOR": 1, "ZYKLUS": null }, "geometry": { "type": "Point", "coordinates": [ 6.895036852599669, 46.454455903779127 ] } },
{ "type": "Feature", "properties": { "OBJEKTART": "LV95-Hauptpunkt", "TITEL": "NULL", "PUNKTNAME": "Chasseral", "LV95E": 2571097.06, "LV95N": 1220268.56, "LK25": "1125", "LFPNR": "11252000", "NOWAY": 0, "SECTOR": 1, "ZYKLUS": null }, "geometry": { "type": "Point", "coordinates": [ 7.057665977166545, 47.132763933127251 ] } },
{ "type": "Feature", "properties": { "OBJEKTART": "LV95-Hauptpunkt", "TITEL": "NULL", "PUNKTNAME": "Col des Etroits", "LV95E": 2528021.92, "LV95N": 1187010.3, "LK25": "1182", "LFPNR": "11826210", "NOWAY": 0, "SECTOR": 1, "ZYKLUS": null }, "geometry": { "type": "Point", "coordinates": [ 6.495220772555725, 46.830333787189076 ] } },
{ "type": "Feature", "properties": { "OBJEKTART": "LV95-Hauptpunkt", "TITEL": "NULL", "PUNKTNAME": "Crodo d'Ossola", "LV95E": 2668672.08, "LV95N": 1122627.03, "LK25": "1290", "LFPNR": "12906000", "NOWAY": 1, "SECTOR": 4, "ZYKLUS": null }, "geometry": { "type": "Point", "coordinates": [ 8.329146459969559, 46.25157312027207 ] } },
{ "type": "Feature", "properties": { "OBJEKTART": "LV95-Hauptpunkt", "TITEL": "NULL", "PUNKTNAME": "Dalpe", "LV95E": 2702425.51, "LV95N": 1148633.88, "LK25": "1252", "LFPNR": "12526000", "NOWAY": 0, "SECTOR": 5, "ZYKLUS": null }, "geometry": { "type": "Point", "coordinates": [ 8.772505754710274, 46.481195009567159 ] } },
{ "type": "Feature", "properties": { "OBJEKTART": "LV95-Hauptpunkt", "TITEL": "NULL", "PUNKTNAME": "Davos", "LV95E": 2783747.57, "LV95N": 1187595.55, "LK25": "1197", "LFPNR": "11973000", "NOWAY": 0, "SECTOR": 5, "ZYKLUS": null }, "geometry": { "type": "Point", "coordinates": [ 9.846603218245066, 46.814139091597809 ] } },
{ "type": "Feature", "properties": { "OBJEKTART": "LV95-Hauptpunkt", "TITEL": "NULL", "PUNKTNAME": "Dettighofen", "LV95E": 2733095.76, "LV95N": 1275945.1, "LK25": "1054", "LFPNR": "10544000", "NOWAY": 0, "SECTOR": 3, "ZYKLUS": null }, "geometry": { "type": "Point", "coordinates": [ 9.209213994015963, 47.620662855473796 ] } },
{ "type": "Feature", "properties": { "OBJEKTART": "LV95-Hauptpunkt", "TITEL": "NULL", "PUNKTNAME": "Echandens", "LV95E": 2530534.92, "LV95N": 1155303.4, "LK25": "1242", "LFPNR": "12427000", "NOWAY": 0, "SECTOR": 1, "ZYKLUS": null }, "geometry": { "type": "Point", "coordinates": [ 6.532960914019746, 46.545401573848899 ] } },
{ "type": "Feature", "properties": { "OBJEKTART": "LV95-Hauptpunkt", "TITEL": "NULL", "PUNKTNAME": "Einsiedeln", "LV95E": 2700453.23, "LV95N": 1220929.77, "LK25": "1132", "LFPNR": "11325000", "NOWAY": 0, "SECTOR": 3, "ZYKLUS": null }, "geometry": { "type": "Point", "coordinates": [ 8.762712730122271, 47.131727418527795 ] } },
{ "type": "Feature", "properties": { "OBJEKTART": "LV95-Hauptpunkt", "TITEL": "NULL", "PUNKTNAME": "Engelberg", "LV95E": 2678524.91, "LV95N": 1183805.71, "LK25": "1191", "LFPNR": "11913000", "NOWAY": 1, "SECTOR": 2, "ZYKLUS": null }, "geometry": { "type": "Point", "coordinates": [ 8.467297712194398, 46.800785345231546 ] } },
{ "type": "Feature", "properties": { "OBJEKTART": "LV95-Hauptpunkt", "TITEL": "NULL", "PUNKTNAME": "Engstligenalp", "LV95E": 2609713.57, "LV95N": 1144184.61, "LK25": "1267", "LFPNR": "12673000", "NOWAY": 0, "SECTOR": 4, "ZYKLUS": null }, "geometry": { "type": "Point", "coordinates": [ 7.56505749379415, 46.448928687739567 ] } },
{ "type": "Feature", "properties": { "OBJEKTART": "LV95-Hauptpunkt", "TITEL": "NULL", "PUNKTNAME": "Essertines", "LV95E": 2514537.74, "LV95N": 1148549.46, "LK25": "1241", "LFPNR": "12418000", "NOWAY": 0, "SECTOR": 1, "ZYKLUS": null }, "geometry": { "type": "Point", "coordinates": [ 6.325667709915966, 46.482796558509655 ] } },
{ "type": "Feature", "properties": { "OBJEKTART": "LV95-Hauptpunkt", "TITEL": "NULL", "PUNKTNAME": "Fahy", "LV95E": 2563017.02, "LV95N": 1251105.54, "LK25": "1084", "LFPNR": "10846000", "NOWAY": 0, "SECTOR": 1, "ZYKLUS": null }, "geometry": { "type": "Point", "coordinates": [ 6.94862199112506, 47.409718893913883 ] } },
{ "type": "Feature", "properties": { "OBJEKTART": "LV95-Hauptpunkt", "TITEL": "NULL", "PUNKTNAME": "Fieschertal", "LV95E": 2654264.46, "LV95N": 1141850.91, "LK25": "1269", "LFPNR": "12698000", "NOWAY": 1, "SECTOR": 4, "ZYKLUS": null }, "geometry": { "type": "Point", "coordinates": [ 8.144569242217475, 46.42581315011553 ] } },
{ "type": "Feature", "properties": { "OBJEKTART": "LV95-Hauptpunkt", "TITEL": "NULL", "PUNKTNAME": "Filisur C", "LV95E": 2771382.94, "LV95N": 1171945.14, "LK25": "1216", "LFPNR": "12165390", "NOWAY": 1, "SECTOR": 5, "ZYKLUS": null }, "geometry": { "type": "Point", "coordinates": [ 9.678803680245387, 46.676713081541997 ] } },
{ "type": "Feature", "properties": { "OBJEKTART": "LV95-Hauptpunkt", "TITEL": "NULL", "PUNKTNAME": "Forel", "LV95E": 2557520.15, "LV95N": 1191462.53, "LK25": "1184", "LFPNR": "11843000", "NOWAY": 0, "SECTOR": 1, "ZYKLUS": null }, "geometry": { "type": "Point", "coordinates": [ 6.881419865123225, 46.872923777498812 ] } },
{ "type": "Feature", "properties": { "OBJEKTART": "LV95-Hauptpunkt", "TITEL": "NULL", "PUNKTNAME": "Fribourg", "LV95E": 2577712.12, "LV95N": 1185115.72, "LK25": "1185", "LFPNR": "11855000", "NOWAY": 0, "SECTOR": 1, "ZYKLUS": null }, "geometry": { "type": "Point", "coordinates": [ 7.146588189956895, 46.816818847582965 ] } },
{ "type": "Feature", "properties": { "OBJEKTART": "LV95-Hauptpunkt", "TITEL": "NULL", "PUNKTNAME": "Gaster", "LV95E": 2719265.39, "LV95N": 1228530.098, "LK25": "1133", "LFPNR": "11336500", "NOWAY": 0, "SECTOR": 3, "ZYKLUS": null }, "geometry": { "type": "Point", "coordinates": [ 9.012625934974794, 47.196954065402487 ] } },
{ "type": "Feature", "properties": { "OBJEKTART": "LV95-Hauptpunkt", "TITEL": "NULL", "PUNKTNAME": "Glarus", "LV95E": 2722860.46, "LV95N": 1212025.05, "LK25": "1153", "LFPNR": "11537000", "NOWAY": 0, "SECTOR": 3, "ZYKLUS": null }, "geometry": { "type": "Point", "coordinates": [ 9.055569618531322, 47.047866654779781 ] } },
{ "type": "Feature", "properties": { "OBJEKTART": "LV95-Hauptpunkt", "TITEL": "NULL", "PUNKTNAME": "Goldach", "LV95E": 2751581.76, "LV95N": 1259783.24, "LK25": "1075", "LFPNR": "10754000", "NOWAY": 0, "SECTOR": 3, "ZYKLUS": null }, "geometry": { "type": "Point", "coordinates": [ 9.449523815340719, 47.471342668902807 ] } },
{ "type": "Feature", "properties": { "OBJEKTART": "LV95-Hauptpunkt", "TITEL": "NULL", "PUNKTNAME": "Grimsel", "LV95E": 2669035.55, "LV95N": 1157192.17, "LK25": "1250", "LFPNR": "12507000", "NOWAY": 0, "SECTOR": 4, "ZYKLUS": null }, "geometry": { "type": "Point", "coordinates": [ 8.339001189524867, 46.56245044377826 ] } },
{ "type": "Feature", "properties": { "OBJEKTART": "LV95-Hauptpunkt", "TITEL": "NULL", "PUNKTNAME": "Guggisberg", "LV95E": 2593547.96, "LV95N": 1180627.47, "LK25": "1206", "LFPNR": "12064000", "NOWAY": 0, "SECTOR": 4, "ZYKLUS": null }, "geometry": { "type": "Point", "coordinates": [ 7.354154960584943, 46.776789181391678 ] } },
{ "type": "Feature", "properties": { "OBJEKTART": "LV95-Hauptpunkt", "TITEL": "NULL", "PUNKTNAME": "Hönggerberg", "LV95E": 2679886.2, "LV95N": 1251326.32, "LK25": "1091", "LFPNR": "10913000", "NOWAY": 0, "SECTOR": 3, "ZYKLUS": null }, "geometry": { "type": "Point", "coordinates": [ 8.497057277573163, 47.407906976803567 ] } },
{ "type": "Feature", "properties": { "OBJEKTART": "LV95-Hauptpunkt", "TITEL": "NULL", "PUNKTNAME": "Hütten", "LV95E": 2637727.37, "LV95N": 1274920.25, "LK25": "1049", "LFPNR": "10490010", "NOWAY": 0, "SECTOR": 2, "ZYKLUS": null }, "geometry": { "type": "Point", "coordinates": [ 7.940504896951705, 47.623866200152342 ] } },
{ "type": "Feature", "properties": { "OBJEKTART": "LV95-Hauptpunkt", "TITEL": "NULL", "PUNKTNAME": "Hohentwiel", "LV95E": 2703439.41, "LV95N": 1291348.76, "LK25": "1012", "LFPNR": "10126000", "NOWAY": 1, "SECTOR": 3, "ZYKLUS": null }, "geometry": { "type": "Point", "coordinates": [ 8.818387594653059, 47.764518881570268 ] } },
{ "type": "Feature", "properties": { "OBJEKTART": "LV95-Hauptpunkt", "TITEL": "NULL", "PUNKTNAME": "Jeizinen", "LV95E": 2621906.57, "LV95N": 1130595.83, "LK25": "1288", "LFPNR": "12880000", "NOWAY": 0, "SECTOR": 4, "ZYKLUS": null }, "geometry": { "type": "Point", "coordinates": [ 7.723101529406013, 46.326403365711343 ] } },
{ "type": "Feature", "properties": { "OBJEKTART": "LV95-Hauptpunkt", "TITEL": "NULL", "PUNKTNAME": "Jungfraujoch", "LV95E": 2641904.99, "LV95N": 1155278.12, "LK25": "1249", "LFPNR": "12492500", "NOWAY": 1, "SECTOR": 4, "ZYKLUS": null }, "geometry": { "type": "Point", "coordinates": [ 7.985005693754044, 46.54748192584676 ] } },
{ "type": "Feature", "properties": { "OBJEKTART": "LV95-Hauptpunkt", "TITEL": "NULL", "PUNKTNAME": "Klausenpass", "LV95E": 2707986.33, "LV95N": 1191681.5, "LK25": "1193", "LFPNR": "11930000", "NOWAY": 0, "SECTOR": 5, "ZYKLUS": null }, "geometry": { "type": "Point", "coordinates": [ 8.85502733030032, 46.867493509779372 ] } },
{ "type": "Feature", "properties": { "OBJEKTART": "LV95-Hauptpunkt", "TITEL": "NULL", "PUNKTNAME": "Knutwil", "LV95E": 2647382.33, "LV95N": 1228185.31, "LK25": "1129", "LFPNR": "11295000", "NOWAY": 0, "SECTOR": 2, "ZYKLUS": null }, "geometry": { "type": "Point", "coordinates": [ 8.063987927684266, 47.202913525070876 ] } },
{ "type": "Feature", "properties": { "OBJEKTART": "LV95-Hauptpunkt", "TITEL": "NULL", "PUNKTNAME": "La Chaux-de-Fonds", "LV95E": 2555342.27, "LV95N": 1214665.36, "LK25": "1144", "LFPNR": "11442000", "NOWAY": 0, "SECTOR": 1, "ZYKLUS": null }, "geometry": { "type": "Point", "coordinates": [ 6.850566900188529, 47.081487204908122 ] } },
{ "type": "Feature", "properties": { "OBJEKTART": "LV95-Hauptpunkt", "TITEL": "NULL", "PUNKTNAME": "La Sarraz", "LV95E": 2530238.09, "LV95N": 1167827.59, "LK25": "1222", "LFPNR": "12227000", "NOWAY": 0, "SECTOR": 1, "ZYKLUS": null }, "geometry": { "type": "Point", "coordinates": [ 6.527191085942406, 46.658025075076864 ] } },
{ "type": "Feature", "properties": { "OBJEKTART": "LV95-Hauptpunkt", "TITEL": "NULL", "PUNKTNAME": "La Tour-de-Trême", "LV95E": 2571572.46, "LV95N": 1161970.57, "LK25": "1225", "LFPNR": "12252000", "NOWAY": 0, "SECTOR": 1, "ZYKLUS": null }, "geometry": { "type": "Point", "coordinates": [ 7.067577948016083, 46.60838509648584 ] } },
{ "type": "Feature", "properties": { "OBJEKTART": "LV95-Hauptpunkt", "TITEL": "NULL", "PUNKTNAME": "Lägern", "LV95E": 2672526.1, "LV95N": 1259423.91, "LK25": "1071", "LFPNR": "10710000", "NOWAY": 0, "SECTOR": 2, "ZYKLUS": null }, "geometry": { "type": "Point", "coordinates": [ 8.400867051694993, 47.48158335693558 ] } },
{ "type": "Feature", "properties": { "OBJEKTART": "LV95-Hauptpunkt", "TITEL": "NULL", "PUNKTNAME": "Langenthal", "LV95E": 2629477.66, "LV95N": 1228055.72, "LK25": "1128", "LFPNR": "11284000", "NOWAY": 0, "SECTOR": 2, "ZYKLUS": null }, "geometry": { "type": "Point", "coordinates": [ 7.827675636810873, 47.202787797640994 ] } },
{ "type": "Feature", "properties": { "OBJEKTART": "LV95-Hauptpunkt", "TITEL": "NULL", "PUNKTNAME": "Laufenburg", "LV95E": 2646839.99, "LV95N": 1268057.9, "LK25": "1049", "LFPNR": "10494000", "NOWAY": 0, "SECTOR": 2, "ZYKLUS": null }, "geometry": { "type": "Point", "coordinates": [ 8.061001281982655, 47.561563936605921 ] } },
{ "type": "Feature", "properties": { "OBJEKTART": "LV95-Hauptpunkt", "TITEL": "NULL", "PUNKTNAME": "Laufenburg BP", "LV95E": 2646796.606, "LV95N": 1267914.975, "LK25": "1049", "LFPNR": "10494001", "NOWAY": 0, "SECTOR": 2, "ZYKLUS": null }, "geometry": { "type": "Point", "coordinates": [ 8.06040980932713, 47.560281643251614 ] } },
{ "type": "Feature", "properties": { "OBJEKTART": "LV95-Hauptpunkt", "TITEL": "NULL", "PUNKTNAME": "Le Lieu", "LV95E": 2510635.74, "LV95N": 1166084.32, "LK25": "1221", "LFPNR": "12216000", "NOWAY": 0, "SECTOR": 1, "ZYKLUS": null }, "geometry": { "type": "Point", "coordinates": [ 6.271457385754078, 46.640005293730269 ] } },
{ "type": "Feature", "properties": { "OBJEKTART": "LV95-Hauptpunkt", "TITEL": "NULL", "PUNKTNAME": "Lenzburg", "LV95E": 2656314.03, "LV95N": 1248745.94, "LK25": "1090", "LFPNR": "10900000", "NOWAY": 0, "SECTOR": 2, "ZYKLUS": null }, "geometry": { "type": "Point", "coordinates": [ 8.184441469803218, 47.387136866694853 ] } },
{ "type": "Feature", "properties": { "OBJEKTART": "LV95-Hauptpunkt", "TITEL": "NULL", "PUNKTNAME": "Les Haudères", "LV95E": 2605409.26, "LV95N": 1103353.26, "LK25": "1327", "LFPNR": "13271000", "NOWAY": 0, "SECTOR": 4, "ZYKLUS": null }, "geometry": { "type": "Point", "coordinates": [ 7.508571822446732, 46.08167469373479 ] } },
{ "type": "Feature", "properties": { "OBJEKTART": "LV95-Hauptpunkt", "TITEL": "NULL", "PUNKTNAME": "Les Rangiers", "LV95E": 2582653.76, "LV95N": 1247512.26, "LK25": "1085", "LFPNR": "10857000", "NOWAY": 0, "SECTOR": 1, "ZYKLUS": null }, "geometry": { "type": "Point", "coordinates": [ 7.208934666627337, 47.37821330766581 ] } },
{ "type": "Feature", "properties": { "OBJEKTART": "LV95-Hauptpunkt", "TITEL": "NULL", "PUNKTNAME": "Lueg", "LV95E": 2619544.66, "LV95N": 1213708.37, "LK25": "1147", "LFPNR": "11478000", "NOWAY": 0, "SECTOR": 2, "ZYKLUS": null }, "geometry": { "type": "Point", "coordinates": [ 7.6959613634205, 47.074104119058461 ] } },
{ "type": "Feature", "properties": { "OBJEKTART": "LV95-Hauptpunkt", "TITEL": "NULL", "PUNKTNAME": "Maloja", "LV95E": 2773457.26, "LV95N": 1140975.42, "LK25": "1276", "LFPNR": "12766000", "NOWAY": 0, "SECTOR": 5, "ZYKLUS": null }, "geometry": { "type": "Point", "coordinates": [ 9.694265402289181, 46.397701333293824 ] } },
{ "type": "Feature", "properties": { "OBJEKTART": "LV95-Hauptpunkt", "TITEL": "NULL", "PUNKTNAME": "Martigny", "LV95E": 2571424.58, "LV95N": 1106013.95, "LK25": "1325", "LFPNR": "13252000", "NOWAY": 0, "SECTOR": 4, "ZYKLUS": null }, "geometry": { "type": "Point", "coordinates": [ 7.069099194145122, 46.1050212166124 ] } },
{ "type": "Feature", "properties": { "OBJEKTART": "LV95-Hauptpunkt", "TITEL": "NULL", "PUNKTNAME": "Martigny Rab", "LV95E": 2571394.901, "LV95N": 1105986.602, "LK25": "1325", "LFPNR": "13252001", "NOWAY": 0, "SECTOR": 2, "ZYKLUS": null }, "geometry": { "type": "Point", "coordinates": [ 7.068717053141626, 46.104773947342757 ] } },
{ "type": "Feature", "properties": { "OBJEKTART": "LV95-Hauptpunkt", "TITEL": "NULL", "PUNKTNAME": "Menzberg", "LV95E": 2641254.8, "LV95N": 1210053.28, "LK25": "1149", "LFPNR": "11492000", "NOWAY": 0, "SECTOR": 2, "ZYKLUS": null }, "geometry": { "type": "Point", "coordinates": [ 7.981464578814436, 47.040232869546401 ] } },
{ "type": "Feature", "properties": { "OBJEKTART": "LV95-Hauptpunkt", "TITEL": "NULL", "PUNKTNAME": "Mesocco", "LV95E": 2737917.51, "LV95N": 1138968.49, "LK25": "1274", "LFPNR": "12746000", "NOWAY": 0, "SECTOR": 5, "ZYKLUS": null }, "geometry": { "type": "Point", "coordinates": [ 9.231693961839248, 46.387903137500587 ] } },
{ "type": "Feature", "properties": { "OBJEKTART": "LV95-Hauptpunkt", "TITEL": "NULL", "PUNKTNAME": "Metzerlen", "LV95E": 2601547.64, "LV95N": 1257600.02, "LK25": "1066", "LFPNR": "10668000", "NOWAY": 0, "SECTOR": 1, "ZYKLUS": null }, "geometry": { "type": "Point", "coordinates": [ 7.459151212829506, 47.469172656070498 ] } },
{ "type": "Feature", "properties": { "OBJEKTART": "LV95-Hauptpunkt", "TITEL": "NULL", "PUNKTNAME": "Monte Generoso", "LV95E": 2722759.06, "LV95N": 1087648.19, "LK25": "1353", "LFPNR": "13537310", "NOWAY": 1, "SECTOR": 5, "ZYKLUS": null }, "geometry": { "type": "Point", "coordinates": [ 9.021218881837768, 45.929288033475011 ] } },
{ "type": "Feature", "properties": { "OBJEKTART": "LV95-Hauptpunkt", "TITEL": "NULL", "PUNKTNAME": "Montlingen", "LV95E": 2762631.409, "LV95N": 1245364.646, "LK25": "1096", "LFPNR": "10961001", "NOWAY": 0, "SECTOR": 3, "ZYKLUS": null }, "geometry": { "type": "Point", "coordinates": [ 9.590791676975005, 47.339068435459822 ] } },
{ "type": "Feature", "properties": { "OBJEKTART": "LV95-Hauptpunkt", "TITEL": "NULL", "PUNKTNAME": "Moudon", "LV95E": 2552568.96, "LV95N": 1168032.06, "LK25": "1224", "LFPNR": "12241000", "NOWAY": 0, "SECTOR": 1, "ZYKLUS": null }, "geometry": { "type": "Point", "coordinates": [ 6.818910001589882, 46.661828212614587 ] } },
{ "type": "Feature", "properties": { "OBJEKTART": "LV95-Hauptpunkt", "TITEL": "NULL", "PUNKTNAME": "Nollen", "LV95E": 2726834.43, "LV95N": 1261519.34, "LK25": "1074", "LFPNR": "10740000", "NOWAY": 0, "SECTOR": 3, "ZYKLUS": null }, "geometry": { "type": "Point", "coordinates": [ 9.121827974908019, 47.492192871128722 ] } },
{ "type": "Feature", "properties": { "OBJEKTART": "LV95-Hauptpunkt", "TITEL": "NULL", "PUNKTNAME": "Oberalp", "LV95E": 2694279.93, "LV95N": 1168353.29, "LK25": "1232", "LFPNR": "12322000", "NOWAY": 0, "SECTOR": 5, "ZYKLUS": null }, "geometry": { "type": "Point", "coordinates": [ 8.670477001124564, 46.659756833088629 ] } },
{ "type": "Feature", "properties": { "OBJEKTART": "LV95-Hauptpunkt", "TITEL": "NULL", "PUNKTNAME": "Oberarth", "LV95E": 2683113.95, "LV95N": 1212157.7, "LK25": "1151", "LFPNR": "11515000", "NOWAY": 0, "SECTOR": 3, "ZYKLUS": null }, "geometry": { "type": "Point", "coordinates": [ 8.53258304633988, 47.055235656727618 ] } },
{ "type": "Feature", "properties": { "OBJEKTART": "LV95-Hauptpunkt", "TITEL": "NULL", "PUNKTNAME": "Oberhelfenschwil", "LV95E": 2726396.26, "LV95N": 1245733.23, "LK25": "1094", "LFPNR": "10940000", "NOWAY": 0, "SECTOR": 3, "ZYKLUS": null }, "geometry": { "type": "Point", "coordinates": [ 9.111548135802487, 47.350327571585169 ] } },
{ "type": "Feature", "properties": { "OBJEKTART": "LV95-Hauptpunkt", "TITEL": "NULL", "PUNKTNAME": "Pfannenstiel", "LV95E": 2693607.01, "LV95N": 1238359.43, "LK25": "1112", "LFPNR": "11121000", "NOWAY": 0, "SECTOR": 3, "ZYKLUS": null }, "geometry": { "type": "Point", "coordinates": [ 8.676110493210386, 47.289485637136679 ] } },
{ "type": "Feature", "properties": { "OBJEKTART": "LV95-Hauptpunkt", "TITEL": "NULL", "PUNKTNAME": "Piton (Salève)", "LV95E": 2499499.62, "LV95N": 1105647.42, "LK25": "1301", "LFPNR": "13011000", "NOWAY": 1, "SECTOR": 1, "ZYKLUS": null }, "geometry": { "type": "Point", "coordinates": [ 6.139126628597921, 46.094829169584834 ] } },
{ "type": "Feature", "properties": { "OBJEKTART": "LV95-Hauptpunkt", "TITEL": "NULL", "PUNKTNAME": "Ramosch", "LV95E": 2825910.38, "LV95N": 1192173.56, "LK25": "1199", "LFPNR": "11996000", "NOWAY": 0, "SECTOR": 5, "ZYKLUS": null }, "geometry": { "type": "Point", "coordinates": [ 10.400926119703184, 46.842316152609314 ] } },
{ "type": "Feature", "properties": { "OBJEKTART": "LV95-Hauptpunkt", "TITEL": "NULL", "PUNKTNAME": "Reconvilier", "LV95E": 2582454.79, "LV95N": 1231582.45, "LK25": "1105", "LFPNR": "11057000", "NOWAY": 0, "SECTOR": 1, "ZYKLUS": null }, "geometry": { "type": "Point", "coordinates": [ 7.206925985870711, 47.234928979932064 ] } },
{ "type": "Feature", "properties": { "OBJEKTART": "LV95-Hauptpunkt", "TITEL": "NULL", "PUNKTNAME": "Riedholz", "LV95E": 2609524.76, "LV95N": 1231501.35, "LK25": "1107", "LFPNR": "11073000", "NOWAY": 0, "SECTOR": 1, "ZYKLUS": null },